$GPRMC,000439.000,A,6000.0000,N,03000.0000,E,000.0,033.8,280510,,*0E
$GPGGA,000439.000,6000.0000,N,03000.0000,E,1,3,0.0,3.9,M,16.1,M,,*68
$GPGSV,1,1,3,09,73,251,42,27,70,179,42,17,51,077,42*78


$GPRMC,000439.000,A,6000.0000,N,03000.0000,E,000.0,033.8,280510,,*0E
$GPGGA,000439.000,6000.0000,N,03000.0000,E,1,3,0.0,3.9,M,16.1,M,,*68
$GPGSV,1,1,3,09,73,251,42,27,70,179,42,17,51,077,42*78


$GPRMC,000439.000,A,6000.0000,N,03000.0000,E,000.0,033.8,280510,,*0E
$GPGGA,000439.000,6000.0000,N,03000.0000,E,1,3,0.0,3.9,M,16.1,M,,*68
$GPGSV,1,1,3,09,73,251,42,27,70,179,42,17,51,077,42*78


$GPRMC,000439.000,A,6000.0000,N,03000.0000,E,000.0,033.8,280510,,*0E
$GPGGA,000439.000,6000.0000,N,03000.0000,E,1,3,0.0,3.9,M,16.1,M,,*68
$GPGSV,1,1,3,09,73,251,42,27,70,179,42,17,51,077,42*78


$GPRMC,000439.000,A,6000.0000,N,03000.0000,E,000.0,033.8,280510,,*0E
$GPGGA,000439.000,6000.0000,N,03000.0000,E,1,3,0.0,3.9,M,16.1,M,,*68
$GPGSV,1,1,3,09,73,251,42,27,70,179,42,17,51,077,42*78


$GPRMC,000439.000,A,6000.0000,N,03000.0000,E,000.0,033.8,280510,,*0E
$GPGGA,000439.000,6000.0000,N,03000.0000,E,1,3,0.0,3.9,M,16.1,M,,*68
$GPGSV,1,1,3,09,73,251,42,27,70,179,42,17,51,077,42*78


$GPRMC,000439.000,A,6000.0000,N,03000.0000,E,000.0,033.8,280510,,*0E
$GPGGA,000439.000,6000.0000,N,03000.0000,E,1,3,0.0,3.9,M,16.1,M,,*68
$GPGSV,1,1,3,09,73,251,42,27,70,179,42,17,51,077,42*78


$GPRMC,000439.000,A,6000.0000,N,03000.0000,E,000.0,033.8,280510,,*0E
$GPGGA,000439.000,6000.0000,N,03000.0000,E,1,3,0.0,3.9,M,16.1,M,,*68
$GPGSV,1,1,3,09,73,251,42,27,70,179,42,17,51,077,42*78


$GPRMC,000440.000,A,6000.0000,N,03000.0000,E,000.0,033.8,280510,,*00
$GPGGA,000440.000,6000.0000,N,03000.0000,E,1,3,0.0,3.9,M,16.1,M,,*66
$GPGSV,1,1,3,09,73,251,42,27,70,179,42,17,51,077,42*78


$GPRMC,000440.000,A,6000.0000,N,03000.0000,E,000.0,033.8,280510,,*00
$GPGGA,000440.000,6000.0000,N,03000.0000,E,1,3,0.0,3.9,M,16.1,M,,*66
$GPGSV,1,1,3,09,73,251,42,27,70,179,42,17,51,077,42*78


$GPRMC,000440.000,A,6000.0000,N,03000.0000,E,000.0,033.8,280510,,*00
$GPGGA,000440.000,6000.0000,N,03000.0000,E,1,3,0.0,3.9,M,16.1,M,,*66
$GPGSV,1,1,3,09,73,251,42,27,70,179,42,17,51,077,42*78


$GPRMC,000440.000,A,6000.0000,N,03000.0000,E,000.0,033.8,280510,,*00
$GPGGA,000440.000,6000.0000,N,03000.0000,E,1,3,0.0,3.9,M,16.1,M,,*66
$GPGSV,1,1,3,09,73,251,42,27,70,179,42,17,51,077,42*78


$GPRMC,000440.000,A,6000.0000,N,03000.0000,E,000.0,033.8,280510,,*00
$GPGGA,000440.000,6000.0000,N,03000.0000,E,1,3,0.0,3.9,M,16.1,M,,*66
$GPGSV,1,1,3,09,73,251,42,27,70,179,42,17,51,077,42*78


$GPRMC,000440.000,A,6000.0000,N,03000.0000,E,000.0,033.8,280510,,*00
$GPGGA,000440.000,6000.0000,N,03000.0000,E,1,3,0.0,3.9,M,16.1,M,,*66
$GPGSV,1,1,3,09,73,251,42,27,70,179,42,17,51,077,42*78


$GPRMC,000440.000,A,6000.0000,N,03000.0000,E,000.0,033.8,280510,,*00
$GPGGA,000440.000,6000.0000,N,03000.0000,E,1,3,0.0,3.9,M,16.1,M,,*66
$GPGSV,1,1,3,09,73,251,42,27,70,179,42,17,51,077,42*78


$GPRMC,000440.000,A,6000.0000,N,03000.0000,E,000.0,033.8,280510,,*00
$GPGGA,000440.000,6000.0000,N,03000.0000,E,1,3,0.0,3.9,M,16.1,M,,*66
$GPGSV,1,1,3,09,73,251,42,27,70,179,42,17,51,077,42*78


$GPRMC,000440.000,A,6000.0000,N,03000.0000,E,000.0,033.8,280510,,*00
$GPGGA,000440.000,6000.0000,N,03000.0000,E,1,3,0.0,3.9,M,16.1,M,,*66
$GPGSV,1,1,3,09,73,251,42,27,70,179,42,17,51,077,42*78


$GPRMC,000440.000,A,6000.0000,N,03000.0000,E,000.0,033.8,280510,,*00
$GPGGA,000440.000,6000.0000,N,03000.0000,E,1,3,0.0,3.9,M,16.1,M,,*66
$GPGSV,1,1,3,09,73,251,42,27,70,179,42,17,51,077,42*78


$GPRMC,000440.000,A,6000.0000,N,03000.0000,E,000.0,033.8,280510,,*00
$GPGGA,000440.000,6000.0000,N,03000.0000,E,1,3,0.0,3.9,M,16.1,M,,*66
$GPGSV,1,1,3,09,73,251,42,27,70,179,42,17,51,077,42*78


$GPRMC,000440.000,A,6000.0000,N,03000.0000,E,000.0,033.8,280510,,*00
$GPGGA,000440.000,6000.0000,N,03000.0000,E,1,3,0.0,3.9,M,16.1,M,,*66
$GPGSV,1,1,3,09,73,251,42,27,70,179,42,17,51,077,42*78


$GPRMC,000440.000,A,6000.0000,N,03000.0000,E,000.0,033.8,280510,,*00
$GPGGA,000440.000,6000.0000,N,03000.0000,E,1,3,0.0,3.9,M,16.1,M,,*66
$GPGSV,1,1,3,09,73,251,42,27,70,179,42,17,51,077,42*78


$GPRMC,000440.000,A,6000.0000,N,03000.0000,E,000.0,033.8,280510,,*00
$GPGGA,000440.000,6000.0000,N,03000.0000,E,1,3,0.0,3.9,M,16.1,M,,*66
$GPGSV,1,1,3,09,73,251,42,27,70,179,42,17,51,077,42*78


$GPRMC,000440.000,A,6000.0000,N,03000.0000,E,000.0,033.8,280510,,*00
$GPGGA,000440.000,6000.0000,N,03000.0000,E,1,3,0.0,3.9,M,16.1,M,,*66
$GPGSV,1,1,3,09,73,251,42,27,70,179,42,17,51,077,42*78


$GPRMC,000440.000,A,6000.0000,N,03000.0000,E,000.0,033.8,280510,,*00
$GPGGA,000440.000,6000.0000,N,03000.0000,E,1,3,0.0,3.9,M,16.1,M,,*66
$GPGSV,1,1,3,09,73,251,42,27,70,179,42,17,51,077,42*78


$GPRMC,000440.000,A,6000.0000,N,03000.0000,E,000.0,033.8,280510,,*00
$GPGGA,000440.000,6000.0000,N,03000.0000,E,1,3,0.0,3.9,M,16.1,M,,*66
$GPGSV,1,1,3,09,73,251,42,27,70,179,42,17,51,077,42*78


$GPRMC,000440.000,A,6000.0000,N,03000.0000,E,000.0,033.8,280510,,*00
$GPGGA,000440.000,6000.0000,N,03000.0000,E,1,3,0.0,3.9,M,16.1,M,,*66
$GPGSV,1,1,3,09,73,251,42,27,70,179,42,17,51,077,42*78


$GPRMC,000440.000,A,6000.0000,N,03000.0000,E,000.0,033.8,280510,,*00
$GPGGA,000440.000,6000.0000,N,03000.0000,E,1,3,0.0,3.9,M,16.1,M,,*66
$GPGSV,1,1,3,09,73,251,42,27,70,179,42,17,51,077,42*78


$GPRMC,000440.000,A,6000.0000,N,03000.0000,E,000.0,033.8,280510,,*00
$GPGGA,000440.000,6000.0000,N,03000.0000,E,1,3,0.0,3.9,M,16.1,M,,*66
$GPGSV,1,1,3,09,73,251,42,27,70,179,42,17,51,077,42*78


$GPRMC,000440.000,A,6000.0000,N,03000.0000,E,000.0,033.8,280510,,*00
$GPGGA,000440.000,6000.0000,N,03000.0000,E,1,3,0.0,3.9,M,16.1,M,,*66
$GPGSV,1,1,3,09,73,251,42,27,70,179,42,17,51,077,42*78


$GPRMC,000440.000,A,6000.0000,N,03000.0000,E,000.0,033.8,280510,,*00
$GPGGA,000440.000,6000.0000,N,03000.0000,E,1,3,0.0,3.9,M,16.1,M,,*66
$GPGSV,1,1,3,09,73,251,42,27,70,179,42,17,51,077,42*78


$GPRMC,000440.000,A,6000.0000,N,03000.0000,E,000.0,033.8,280510,,*00
$GPGGA,000440.000,6000.0000,N,03000.0000,E,1,3,0.0,3.9,M,16.1,M,,*66
$GPGSV,1,1,3,09,73,251,42,27,70,179,42,17,51,077,42*78


$GPRMC,000440.000,A,6000.0000,N,03000.0000,E,000.0,033.8,280510,,*00
$GPGGA,000440.000,6000.0000,N,03000.0000,E,1,3,0.0,3.9,M,16.1,M,,*66
$GPGSV,1,1,3,09,73,251,42,27,70,179,42,17,51,077,42*78


$GPRMC,000440.000,A,6000.0000,N,03000.0000,E,000.0,033.8,280510,,*00
$GPGGA,000440.000,6000.0000,N,03000.0000,E,1,3,0.0,3.9,M,16.1,M,,*66
$GPGSV,1,1,3,09,73,251,42,27,70,179,42,17,51,077,42*78


$GPRMC,000440.000,A,6000.0000,N,03000.0000,E,000.0,033.8,280510,,*00
$GPGGA,000440.000,6000.0000,N,03000.0000,E,1,3,0.0,3.9,M,16.1,M,,*66
$GPGSV,1,1,3,09,73,251,42,27,70,179,42,17,51,077,42*78


$GPRMC,000440.000,A,6000.0000,N,03000.0000,E,000.0,033.8,280510,,*00
$GPGGA,000440.000,6000.0000,N,03000.0000,E,1,3,0.0,3.9,M,16.1,M,,*66
$GPGSV,1,1,3,09,73,251,42,27,70,179,42,17,51,077,42*78


$GPRMC,000440.000,A,6000.0000,N,03000.0000,E,000.0,033.8,280510,,*00
$GPGGA,000440.000,6000.0000,N,03000.0000,E,1,3,0.0,3.9,M,16.1,M,,*66
$GPGSV,1,1,3,09,73,251,42,27,70,179,42,17,51,077,42*78


$GPRMC,000440.000,A,6000.0000,N,03000.0000,E,000.0,033.8,280510,,*00
$GPGGA,000440.000,6000.0000,N,03000.0000,E,1,3,0.0,3.9,M,16.1,M,,*66
$GPGSV,1,1,3,09,73,251,42,27,70,179,42,17,51,077,42*78


$GPRMC,000440.000,A,6000.0000,N,03000.0000,E,000.0,033.8,280510,,*00
$GPGGA,000440.000,6000.0000,N,03000.0000,E,1,3,0.0,3.9,M,16.1,M,,*66
$GPGSV,1,1,3,09,73,251,42,27,70,179,42,17,51,077,42*78


$GPRMC,000440.000,A,6000.0000,N,03000.0000,E,000.0,033.8,280510,,*00
$GPGGA,000440.000,6000.0000,N,03000.0000,E,1,3,0.0,3.9,M,16.1,M,,*66
$GPGSV,1,1,3,09,73,251,42,27,70,179,42,17,51,077,42*78


$GPRMC,000440.000,A,6000.0000,N,03000.0000,E,000.0,033.8,280510,,*00
$GPGGA,000440.000,6000.0000,N,03000.0000,E,1,3,0.0,3.9,M,16.1,M,,*66
$GPGSV,1,1,3,09,73,251,42,27,70,179,42,17,51,077,42*78


$GPRMC,000440.000,A,6000.0000,N,03000.0000,E,000.0,033.8,280510,,*00
$GPGGA,000440.000,6000.0000,N,03000.0000,E,1,3,0.0,3.9,M,16.1,M,,*66
$GPGSV,1,1,3,09,73,251,42,27,70,179,42,17,51,077,42*78


$GPRMC,000440.000,A,6000.0000,N,03000.0000,E,000.0,033.8,280510,,*00
$GPGGA,000440.000,6000.0000,N,03000.0000,E,1,3,0.0,3.9,M,16.1,M,,*66
$GPGSV,1,1,3,09,73,251,42,27,70,179,42,17,51,077,42*78


$GPRMC,000440.000,A,6000.0000,N,03000.0000,E,000.0,033.8,280510,,*00
$GPGGA,000440.000,6000.0000,N,03000.0000,E,1,3,0.0,3.9,M,16.1,M,,*66
$GPGSV,1,1,3,09,73,251,42,27,70,179,42,17,51,077,42*78


$GPRMC,000440.000,A,6000.0000,N,03000.0000,E,000.0,033.8,280510,,*00
$GPGGA,000440.000,6000.0000,N,03000.0000,E,1,3,0.0,3.9,M,16.1,M,,*66
$GPGSV,1,1,3,09,73,251,42,27,70,179,42,17,51,077,42*78


$GPRMC,000440.000,A,6000.0000,N,03000.0000,E,000.0,033.8,280510,,*00
$GPGGA,000440.000,6000.0000,N,03000.0000,E,1,3,0.0,3.9,M,16.1,M,,*66
$GPGSV,1,1,3,09,73,251,42,27,70,179,42,17,51,077,42*78


$GPRMC,000440.000,A,6000.0000,N,03000.0000,E,000.0,033.8,280510,,*00
$GPGGA,000440.000,6000.0000,N,03000.0000,E,1,3,0.0,3.9,M,16.1,M,,*66
$GPGSV,1,1,3,09,73,251,42,27,70,179,42,17,51,077,42*78


$GPRMC,000440.000,A,6000.0000,N,03000.0000,E,000.0,033.8,280510,,*00
$GPGGA,000440.000,6000.0000,N,03000.0000,E,1,3,0.0,3.9,M,16.1,M,,*66
$GPGSV,1,1,3,09,73,251,42,27,70,179,42,17,51,077,42*78


$GPRMC,000440.000,A,6000.0000,N,03000.0000,E,000.0,033.8,280510,,*00
$GPGGA,000440.000,6000.0000,N,03000.0000,E,1,3,0.0,3.9,M,16.1,M,,*66
$GPGSV,1,1,3,09,73,251,42,27,70,179,42,17,51,077,42*78


$GPRMC,000440.000,A,6000.0000,N,03000.0000,E,000.0,033.8,280510,,*00
$GPGGA,000440.000,6000.0000,N,03000.0000,E,1,3,0.0,3.9,M,16.1,M,,*66
$GPGSV,1,1,3,09,73,251,42,27,70,179,42,17,51,077,42*78


$GPRMC,000440.000,A,6000.0000,N,03000.0000,E,000.0,033.8,280510,,*00
$GPGGA,000440.000,6000.0000,N,03000.0000,E,1,3,0.0,3.9,M,16.1,M,,*66
$GPGSV,1,1,3,09,73,251,42,27,70,179,42,17,51,077,42*78


$GPRMC,000440.000,A,6000.0000,N,03000.0000,E,000.0,033.8,280510,,*00
$GPGGA,000440.000,6000.0000,N,03000.0000,E,1,3,0.0,3.9,M,16.1,M,,*66
$GPGSV,1,1,3,09,73,251,42,27,70,179,42,17,51,077,42*78


$GPRMC,000440.000,A,6000.0000,N,03000.0000,E,000.0,033.8,280510,,*00
$GPGGA,000440.000,6000.0000,N,03000.0000,E,1,3,0.0,3.9,M,16.1,M,,*66
$GPGSV,1,1,3,09,73,251,42,27,70,179,42,17,51,077,42*78


$GPRMC,000440.000,A,6000.0000,N,03000.0000,E,000.0,033.8,280510,,*00
$GPGGA,000440.000,6000.0000,N,03000.0000,E,1,3,0.0,3.9,M,16.1,M,,*66
$GPGSV,1,1,3,09,73,251,42,27,70,179,42,17,51,077,42*78


$GPRMC,000440.000,A,6000.0000,N,03000.0000,E,000.0,033.8,280510,,*00
$GPGGA,000440.000,6000.0000,N,03000.0000,E,1,3,0.0,3.9,M,16.1,M,,*66
$GPGSV,1,1,3,09,73,251,42,27,70,179,42,17,51,077,42*78


$GPRMC,000440.000,A,6000.0000,N,03000.0000,E,000.0,033.8,280510,,*00
$GPGGA,000440.000,6000.0000,N,03000.0000,E,1,3,0.0,3.9,M,16.1,M,,*66
$GPGSV,1,1,3,09,73,251,42,27,70,179,42,17,51,077,42*78


$GPRMC,000440.000,A,6000.0000,N,03000.0000,E,000.0,033.8,280510,,*00
$GPGGA,000440.000,6000.0000,N,03000.0000,E,1,3,0.0,3.9,M,16.1,M,,*66
$GPGSV,1,1,3,09,73,251,42,27,70,179,42,17,51,077,42*78


$GPRMC,000440.000,A,6000.0000,N,03000.0000,E,000.0,033.8,280510,,*00
$GPGGA,000440.000,6000.0000,N,03000.0000,E,1,3,0.0,3.9,M,16.1,M,,*66
$GPGSV,1,1,3,09,73,251,42,27,70,179,42,17,51,077,42*78


$GPRMC,000440.000,A,6000.0000,N,03000.0000,E,000.0,033.8,280510,,*00
$GPGGA,000440.000,6000.0000,N,03000.0000,E,1,3,0.0,3.9,M,16.1,M,,*66
$GPGSV,1,1,3,09,73,251,42,27,70,179,42,17,51,077,42*78


$GPRMC,000440.000,A,6000.0000,N,03000.0000,E,000.0,033.8,280510,,*00
$GPGGA,000440.000,6000.0000,N,03000.0000,E,1,3,0.0,3.9,M,16.1,M,,*66
$GPGSV,1,1,3,09,73,251,42,27,70,179,42,17,51,077,42*78


$GPRMC,000441.000,A,5959.9989,N,03000.0000,E,008.3,180.0,280510,,*0C
$GPGGA,000441.000,5959.9989,N,03000.0000,E,1,3,0.0,3.9,M,16.1,M,,*60
$GPGSV,1,1,3,09,73,251,42,27,70,179,42,17,51,077,42*78


$GPRMC,000441.000,A,5959.9989,N,03000.0000,E,008.3,180.0,280510,,*0C
$GPGGA,000441.000,5959.9989,N,03000.0000,E,1,3,0.0,3.9,M,16.1,M,,*60
$GPGSV,1,1,3,09,73,251,42,27,70,179,42,17,51,077,42*78


$GPRMC,000441.000,A,5959.9989,N,03000.0000,E,008.3,180.0,280510,,*0C
$GPGGA,000441.000,5959.9989,N,03000.0000,E,1,3,0.0,3.9,M,16.1,M,,*60
$GPGSV,1,1,3,09,73,251,42,27,70,179,42,17,51,077,42*78


$GPRMC,000441.000,A,5959.9989,N,03000.0000,E,008.3,180.0,280510,,*0C
$GPGGA,000441.000,5959.9989,N,03000.0000,E,1,3,0.0,3.9,M,16.1,M,,*60
$GPGSV,1,1,3,09,73,251,42,27,70,179,42,17,51,077,42*78


$GPRMC,000441.000,A,5959.9989,N,03000.0000,E,008.3,180.0,280510,,*0C
$GPGGA,000441.000,5959.9989,N,03000.0000,E,1,3,0.0,3.9,M,16.1,M,,*60
$GPGSV,1,1,3,09,73,251,42,27,70,179,42,17,51,077,42*78


$GPRMC,000441.000,A,5959.9989,N,03000.0000,E,008.3,180.0,280510,,*0C
$GPGGA,000441.000,5959.9989,N,03000.0000,E,1,3,0.0,3.9,M,16.1,M,,*60
$GPGSV,1,1,3,09,73,251,42,27,70,179,42,17,51,077,42*78


$GPRMC,000441.000,A,5959.9989,N,03000.0000,E,008.3,180.0,280510,,*0C
$GPGGA,000441.000,5959.9989,N,03000.0000,E,1,3,0.0,3.9,M,16.1,M,,*60
$GPGSV,1,1,3,09,73,251,42,27,70,179,42,17,51,077,42*78


$GPRMC,000441.000,A,5959.9989,N,03000.0000,E,008.3,180.0,280510,,*0C
$GPGGA,000441.000,5959.9989,N,03000.0000,E,1,3,0.0,3.9,M,16.1,M,,*60
$GPGSV,1,1,3,09,73,251,42,27,70,179,42,17,51,077,42*78


$GPRMC,000441.000,A,5959.9989,N,03000.0000,E,008.3,180.0,280510,,*0C
$GPGGA,000441.000,5959.9989,N,03000.0000,E,1,3,0.0,3.9,M,16.1,M,,*60
$GPGSV,1,1,3,09,73,251,42,27,70,179,42,17,51,077,42*78


$GPRMC,000441.000,A,5959.9989,N,03000.0000,E,008.3,180.0,280510,,*0C
$GPGGA,000441.000,5959.9989,N,03000.0000,E,1,3,0.0,3.9,M,16.1,M,,*60
$GPGSV,1,1,3,09,73,251,42,27,70,179,42,17,51,077,42*78


$GPRMC,000441.000,A,5959.9989,N,03000.0000,E,008.3,180.0,280510,,*0C
$GPGGA,000441.000,5959.9989,N,03000.0000,E,1,3,0.0,3.9,M,16.1,M,,*60
$GPGSV,1,1,3,09,73,251,42,27,70,179,42,17,51,077,42*78


$GPRMC,000441.000,A,5959.9989,N,03000.0000,E,008.3,180.0,280510,,*0C
$GPGGA,000441.000,5959.9989,N,03000.0000,E,1,3,0.0,3.9,M,16.1,M,,*60
$GPGSV,1,1,3,09,73,251,42,27,70,179,42,17,51,077,42*78


$GPRMC,000441.000,A,5959.9989,N,03000.0000,E,008.3,180.0,280510,,*0C
$GPGGA,000441.000,5959.9989,N,03000.0000,E,1,3,0.0,3.9,M,16.1,M,,*60
$GPGSV,1,1,3,09,73,251,42,27,70,179,42,17,51,077,42*78


$GPRMC,000441.000,A,5959.9989,N,03000.0000,E,008.3,180.0,280510,,*0C
$GPGGA,000441.000,5959.9989,N,03000.0000,E,1,3,0.0,3.9,M,16.1,M,,*60
$GPGSV,1,1,3,09,73,251,42,27,70,179,42,17,51,077,42*78


$GPRMC,000441.000,A,5959.9989,N,03000.0000,E,008.3,180.0,280510,,*0C
$GPGGA,000441.000,5959.9989,N,03000.0000,E,1,3,0.0,3.9,M,16.1,M,,*60
$GPGSV,1,1,3,09,73,251,42,27,70,179,42,17,51,077,42*78


$GPRMC,000441.000,A,5959.9989,N,03000.0000,E,008.3,180.0,280510,,*0C
$GPGGA,000441.000,5959.9989,N,03000.0000,E,1,3,0.0,3.9,M,16.1,M,,*60
$GPGSV,1,1,3,09,73,251,42,27,70,179,42,17,51,077,42*78


$GPRMC,000441.000,A,5959.9989,N,03000.0000,E,008.3,180.0,280510,,*0C
$GPGGA,000441.000,5959.9989,N,03000.0000,E,1,3,0.0,3.9,M,16.1,M,,*60
$GPGSV,1,1,3,09,73,251,42,27,70,179,42,17,51,077,42*78


$GPRMC,000441.000,A,5959.9989,N,03000.0000,E,008.3,180.0,280510,,*0C
$GPGGA,000441.000,5959.9989,N,03000.0000,E,1,3,0.0,3.9,M,16.1,M,,*60
$GPGSV,1,1,3,09,73,251,42,27,70,179,42,17,51,077,42*78


$GPRMC,000441.000,A,5959.9989,N,03000.0000,E,008.3,180.0,280510,,*0C
$GPGGA,000441.000,5959.9989,N,03000.0000,E,1,3,0.0,3.9,M,16.1,M,,*60
$GPGSV,1,1,3,09,73,251,42,27,70,179,42,17,51,077,42*78


$GPRMC,000441.000,A,5959.9989,N,03000.0000,E,008.3,180.0,280510,,*0C
$GPGGA,000441.000,5959.9989,N,03000.0000,E,1,3,0.0,3.9,M,16.1,M,,*60
$GPGSV,1,1,3,09,73,251,42,27,70,179,42,17,51,077,42*78


$GPRMC,000441.000,A,5959.9989,N,03000.0000,E,008.3,180.0,280510,,*0C
$GPGGA,000441.000,5959.9989,N,03000.0000,E,1,3,0.0,3.9,M,16.1,M,,*60
$GPGSV,1,1,3,09,73,251,42,27,70,179,42,17,51,077,42*78


$GPRMC,000441.000,A,5959.9989,N,03000.0000,E,008.3,180.0,280510,,*0C
$GPGGA,000441.000,5959.9989,N,03000.0000,E,1,3,0.0,3.9,M,16.1,M,,*60
$GPGSV,1,1,3,09,73,251,42,27,70,179,42,17,51,077,42*78


$GPRMC,000441.000,A,5959.9989,N,03000.0000,E,008.3,180.0,280510,,*0C
$GPGGA,000441.000,5959.9989,N,03000.0000,E,1,3,0.0,3.9,M,16.1,M,,*60
$GPGSV,1,1,3,09,73,251,42,27,70,179,42,17,51,077,42*78


$GPRMC,000441.000,A,5959.9989,N,03000.0000,E,008.3,180.0,280510,,*0C
$GPGGA,000441.000,5959.9989,N,03000.0000,E,1,3,0.0,3.9,M,16.1,M,,*60
$GPGSV,1,1,3,09,73,251,42,27,70,179,42,17,51,077,42*78


$GPRMC,000441.000,A,5959.9989,N,03000.0000,E,008.3,180.0,280510,,*0C
$GPGGA,000441.000,5959.9989,N,03000.0000,E,1,3,0.0,3.9,M,16.1,M,,*60
$GPGSV,1,1,3,09,73,251,42,27,70,179,42,17,51,077,42*78


$GPRMC,000441.000,A,5959.9989,N,03000.0000,E,008.3,180.0,280510,,*0C
$GPGGA,000441.000,5959.9989,N,03000.0000,E,1,3,0.0,3.9,M,16.1,M,,*60
$GPGSV,1,1,3,09,73,251,42,27,70,179,42,17,51,077,42*78


$GPRMC,000441.000,A,5959.9989,N,03000.0000,E,008.3,180.0,280510,,*0C
$GPGGA,000441.000,5959.9989,N,03000.0000,E,1,3,0.0,3.9,M,16.1,M,,*60
$GPGSV,1,1,3,09,73,251,42,27,70,179,42,17,51,077,42*78


$GPRMC,000441.000,A,5959.9989,N,03000.0000,E,008.3,180.0,280510,,*0C
$GPGGA,000441.000,5959.9989,N,03000.0000,E,1,3,0.0,3.9,M,16.1,M,,*60
$GPGSV,1,1,3,09,73,251,42,27,70,179,42,17,51,077,42*78


$GPRMC,000441.000,A,5959.9989,N,03000.0000,E,008.3,180.0,280510,,*0C
$GPGGA,000441.000,5959.9989,N,03000.0000,E,1,3,0.0,3.9,M,16.1,M,,*60
$GPGSV,1,1,3,09,73,251,42,27,70,179,42,17,51,077,42*78


$GPRMC,000441.000,A,5959.9989,N,03000.0000,E,008.3,180.0,280510,,*0C
$GPGGA,000441.000,5959.9989,N,03000.0000,E,1,3,0.0,3.9,M,16.1,M,,*60
$GPGSV,1,1,3,09,73,251,42,27,70,179,42,17,51,077,42*78


$GPRMC,000441.000,A,5959.9989,N,03000.0000,E,008.3,180.0,280510,,*0C
$GPGGA,000441.000,5959.9989,N,03000.0000,E,1,3,0.0,3.9,M,16.1,M,,*60
$GPGSV,1,1,3,09,73,251,42,27,70,179,42,17,51,077,42*78


$GPRMC,000441.000,A,5959.9989,N,03000.0000,E,008.3,180.0,280510,,*0C
$GPGGA,000441.000,5959.9989,N,03000.0000,E,1,3,0.0,3.9,M,16.1,M,,*60
$GPGSV,1,1,3,09,73,251,42,27,70,179,42,17,51,077,42*78


$GPRMC,000441.000,A,5959.9989,N,03000.0000,E,008.3,180.0,280510,,*0C
$GPGGA,000441.000,5959.9989,N,03000.0000,E,1,3,0.0,3.9,M,16.1,M,,*60
$GPGSV,1,1,3,09,73,251,42,27,70,179,42,17,51,077,42*78


$GPRMC,000441.000,A,5959.9989,N,03000.0000,E,008.3,180.0,280510,,*0C
$GPGGA,000441.000,5959.9989,N,03000.0000,E,1,3,0.0,3.9,M,16.1,M,,*60
$GPGSV,1,1,3,09,73,251,42,27,70,179,42,17,51,077,42*78


$GPRMC,000441.000,A,5959.9989,N,03000.0000,E,008.3,180.0,280510,,*0C
$GPGGA,000441.000,5959.9989,N,03000.0000,E,1,3,0.0,3.9,M,16.1,M,,*60
$GPGSV,1,1,3,09,73,251,42,27,70,179,42,17,51,077,42*78


$GPRMC,000441.000,A,5959.9989,N,03000.0000,E,008.3,180.0,280510,,*0C
$GPGGA,000441.000,5959.9989,N,03000.0000,E,1,3,0.0,3.9,M,16.1,M,,*60
$GPGSV,1,1,3,09,73,251,42,27,70,179,42,17,51,077,42*78


$GPRMC,000441.000,A,5959.9989,N,03000.0000,E,008.3,180.0,280510,,*0C
$GPGGA,000441.000,5959.9989,N,03000.0000,E,1,3,0.0,3.9,M,16.1,M,,*60
$GPGSV,1,1,3,09,73,251,42,27,70,179,42,17,51,077,42*78


$GPRMC,000441.000,A,5959.9989,N,03000.0000,E,008.3,180.0,280510,,*0C
$GPGGA,000441.000,5959.9989,N,03000.0000,E,1,3,0.0,3.9,M,16.1,M,,*60
$GPGSV,1,1,3,09,73,251,42,27,70,179,42,17,51,077,42*78


$GPRMC,000441.000,A,5959.9989,N,03000.0000,E,008.3,180.0,280510,,*0C
$GPGGA,000441.000,5959.9989,N,03000.0000,E,1,3,0.0,3.9,M,16.1,M,,*60
$GPGSV,1,1,3,09,73,251,42,27,70,179,42,17,51,077,42*78


$GPRMC,000441.000,A,5959.9989,N,03000.0000,E,008.3,180.0,280510,,*0C
$GPGGA,000441.000,5959.9989,N,03000.0000,E,1,3,0.0,3.9,M,16.1,M,,*60
$GPGSV,1,1,3,09,73,251,42,27,70,179,42,17,51,077,42*78


$GPRMC,000441.000,A,5959.9989,N,03000.0000,E,008.3,180.0,280510,,*0C
$GPGGA,000441.000,5959.9989,N,03000.0000,E,1,3,0.0,3.9,M,16.1,M,,*60
$GPGSV,1,1,3,09,73,251,42,27,70,179,42,17,51,077,42*78


$GPRMC,000441.000,A,5959.9989,N,03000.0000,E,008.3,180.0,280510,,*0C
$GPGGA,000441.000,5959.9989,N,03000.0000,E,1,3,0.0,3.9,M,16.1,M,,*60
$GPGSV,1,1,3,09,73,251,42,27,70,179,42,17,51,077,42*78


$GPRMC,000441.000,A,5959.9989,N,03000.0000,E,008.3,180.0,280510,,*0C
$GPGGA,000441.000,5959.9989,N,03000.0000,E,1,3,0.0,3.9,M,16.1,M,,*60
$GPGSV,1,1,3,09,73,251,42,27,70,179,42,17,51,077,42*78


$GPRMC,000441.000,A,5959.9989,N,03000.0000,E,008.3,180.0,280510,,*0C
$GPGGA,000441.000,5959.9989,N,03000.0000,E,1,3,0.0,3.9,M,16.1,M,,*60
$GPGSV,1,1,3,09,73,251,42,27,70,179,42,17,51,077,42*78


$GPRMC,000441.000,A,5959.9989,N,03000.0000,E,008.3,180.0,280510,,*0C
$GPGGA,000441.000,5959.9989,N,03000.0000,E,1,3,0.0,3.9,M,16.1,M,,*60
$GPGSV,1,1,3,09,73,251,42,27,70,179,42,17,51,077,42*78


$GPRMC,000441.000,A,5959.9989,N,03000.0000,E,008.3,180.0,280510,,*0C
$GPGGA,000441.000,5959.9989,N,03000.0000,E,1,3,0.0,3.9,M,16.1,M,,*60
$GPGSV,1,1,3,09,73,251,42,27,70,179,42,17,51,077,42*78


$GPRMC,000441.000,A,5959.9989,N,03000.0000,E,008.3,180.0,280510,,*0C
$GPGGA,000441.000,5959.9989,N,03000.0000,E,1,3,0.0,3.9,M,16.1,M,,*60
$GPGSV,1,1,3,09,73,251,42,27,70,179,42,17,51,077,42*78


$GPRMC,000441.000,A,5959.9989,N,03000.0000,E,008.3,180.0,280510,,*0C
$GPGGA,000441.000,5959.9989,N,03000.0000,E,1,3,0.0,3.9,M,16.1,M,,*60
$GPGSV,1,1,3,09,73,251,42,27,70,179,42,17,51,077,42*78


$GPRMC,000441.000,A,5959.9989,N,03000.0000,E,008.3,180.0,280510,,*0C
$GPGGA,000441.000,5959.9989,N,03000.0000,E,1,3,0.0,3.9,M,16.1,M,,*60
$GPGSV,1,1,3,09,73,251,42,27,70,179,42,17,51,077,42*78


$GPRMC,000442.000,A,5959.9951,N,03000.0000,E,018.0,180.0,280510,,*08
$GPGGA,000442.000,5959.9951,N,03000.0000,E,1,3,0.0,3.9,M,16.1,M,,*66
$GPGSV,1,1,3,09,73,251,42,27,70,179,42,17,51,077,42*78


$GPRMC,000442.000,A,5959.9951,N,03000.0000,E,018.0,180.0,280510,,*08
$GPGGA,000442.000,5959.9951,N,03000.0000,E,1,3,0.0,3.9,M,16.1,M,,*66
$GPGSV,1,1,3,09,73,251,42,27,70,179,42,17,51,077,42*78


$GPRMC,000442.000,A,5959.9951,N,03000.0000,E,018.0,180.0,280510,,*08
$GPGGA,000442.000,5959.9951,N,03000.0000,E,1,3,0.0,3.9,M,16.1,M,,*66
$GPGSV,1,1,3,09,73,251,42,27,70,179,42,17,51,077,42*78


$GPRMC,000442.000,A,5959.9951,N,03000.0000,E,018.0,180.0,280510,,*08
$GPGGA,000442.000,5959.9951,N,03000.0000,E,1,3,0.0,3.9,M,16.1,M,,*66
$GPGSV,1,1,3,09,73,251,42,27,70,179,42,17,51,077,42*78


$GPRMC,000442.000,A,5959.9951,N,03000.0000,E,018.0,180.0,280510,,*08
$GPGGA,000442.000,5959.9951,N,03000.0000,E,1,3,0.0,3.9,M,16.1,M,,*66
$GPGSV,1,1,3,09,73,251,42,27,70,179,42,17,51,077,42*78


$GPRMC,000442.000,A,5959.9951,N,03000.0000,E,018.0,180.0,280510,,*08
$GPGGA,000442.000,5959.9951,N,03000.0000,E,1,3,0.0,3.9,M,16.1,M,,*66
$GPGSV,1,1,3,09,73,251,42,27,70,179,42,17,51,077,42*78


$GPRMC,000442.000,A,5959.9951,N,03000.0000,E,018.0,180.0,280510,,*08
$GPGGA,000442.000,5959.9951,N,03000.0000,E,1,3,0.0,3.9,M,16.1,M,,*66
$GPGSV,1,1,3,09,73,251,42,27,70,179,42,17,51,077,42*78


$GPRMC,000442.000,A,5959.9951,N,03000.0000,E,018.0,180.0,280510,,*08
$GPGGA,000442.000,5959.9951,N,03000.0000,E,1,3,0.0,3.9,M,16.1,M,,*66
$GPGSV,1,1,3,09,73,251,42,27,70,179,42,17,51,077,42*78


$GPRMC,000442.000,A,5959.9951,N,03000.0000,E,018.0,180.0,280510,,*08
$GPGGA,000442.000,5959.9951,N,03000.0000,E,1,3,0.0,3.9,M,16.1,M,,*66
$GPGSV,1,1,3,09,73,251,42,27,70,179,42,17,51,077,42*78


$GPRMC,000442.000,A,5959.9951,N,03000.0000,E,018.0,180.0,280510,,*08
$GPGGA,000442.000,5959.9951,N,03000.0000,E,1,3,0.0,3.9,M,16.1,M,,*66
$GPGSV,1,1,3,09,73,251,42,27,70,179,42,17,51,077,42*78


$GPRMC,000442.000,A,5959.9951,N,03000.0000,E,018.0,180.0,280510,,*08
$GPGGA,000442.000,5959.9951,N,03000.0000,E,1,3,0.0,3.9,M,16.1,M,,*66
$GPGSV,1,1,3,09,73,251,42,27,70,179,42,17,51,077,42*78


$GPRMC,000442.000,A,5959.9951,N,03000.0000,E,018.0,180.0,280510,,*08
$GPGGA,000442.000,5959.9951,N,03000.0000,E,1,3,0.0,3.9,M,16.1,M,,*66
$GPGSV,1,1,3,09,73,251,42,27,70,179,42,17,51,077,42*78


$GPRMC,000442.000,A,5959.9951,N,03000.0000,E,018.0,180.0,280510,,*08
$GPGGA,000442.000,5959.9951,N,03000.0000,E,1,3,0.0,3.9,M,16.1,M,,*66
$GPGSV,1,1,3,09,73,251,42,27,70,179,42,17,51,077,42*78


$GPRMC,000442.000,A,5959.9951,N,03000.0000,E,018.0,180.0,280510,,*08
$GPGGA,000442.000,5959.9951,N,03000.0000,E,1,3,0.0,3.9,M,16.1,M,,*66
$GPGSV,1,1,3,09,73,251,42,27,70,179,42,17,51,077,42*78


$GPRMC,000442.000,A,5959.9951,N,03000.0000,E,018.0,180.0,280510,,*08
$GPGGA,000442.000,5959.9951,N,03000.0000,E,1,3,0.0,3.9,M,16.1,M,,*66
$GPGSV,1,1,3,09,73,251,42,27,70,179,42,17,51,077,42*78


$GPRMC,000442.000,A,5959.9951,N,03000.0000,E,018.0,180.0,280510,,*08
$GPGGA,000442.000,5959.9951,N,03000.0000,E,1,3,0.0,3.9,M,16.1,M,,*66
$GPGSV,1,1,3,09,73,251,42,27,70,179,42,17,51,077,42*78


$GPRMC,000442.000,A,5959.9951,N,03000.0000,E,018.0,180.0,280510,,*08
$GPGGA,000442.000,5959.9951,N,03000.0000,E,1,3,0.0,3.9,M,16.1,M,,*66
$GPGSV,1,1,3,09,73,251,42,27,70,179,42,17,51,077,42*78


$GPRMC,000442.000,A,5959.9951,N,03000.0000,E,018.0,180.0,280510,,*08
$GPGGA,000442.000,5959.9951,N,03000.0000,E,1,3,0.0,3.9,M,16.1,M,,*66
$GPGSV,1,1,3,09,73,251,42,27,70,179,42,17,51,077,42*78


$GPRMC,000442.000,A,5959.9951,N,03000.0000,E,018.0,180.0,280510,,*08
$GPGGA,000442.000,5959.9951,N,03000.0000,E,1,3,0.0,3.9,M,16.1,M,,*66
$GPGSV,1,1,3,09,73,251,42,27,70,179,42,17,51,077,42*78


$GPRMC,000442.000,A,5959.9951,N,03000.0000,E,018.0,180.0,280510,,*08
$GPGGA,000442.000,5959.9951,N,03000.0000,E,1,3,0.0,3.9,M,16.1,M,,*66
$GPGSV,1,1,3,09,73,251,42,27,70,179,42,17,51,077,42*78


$GPRMC,000442.000,A,5959.9951,N,03000.0000,E,018.0,180.0,280510,,*08
$GPGGA,000442.000,5959.9951,N,03000.0000,E,1,3,0.0,3.9,M,16.1,M,,*66
$GPGSV,1,1,3,09,73,251,42,27,70,179,42,17,51,077,42*78


$GPRMC,000442.000,A,5959.9951,N,03000.0000,E,018.0,180.0,280510,,*08
$GPGGA,000442.000,5959.9951,N,03000.0000,E,1,3,0.0,3.9,M,16.1,M,,*66
$GPGSV,1,1,3,09,73,251,42,27,70,179,42,17,51,077,42*78


$GPRMC,000442.000,A,5959.9951,N,03000.0000,E,018.0,180.0,280510,,*08
$GPGGA,000442.000,5959.9951,N,03000.0000,E,1,3,0.0,3.9,M,16.1,M,,*66
$GPGSV,1,1,3,09,73,251,42,27,70,179,42,17,51,077,42*78


$GPRMC,000442.000,A,5959.9951,N,03000.0000,E,018.0,180.0,280510,,*08
$GPGGA,000442.000,5959.9951,N,03000.0000,E,1,3,0.0,3.9,M,16.1,M,,*66
$GPGSV,1,1,3,09,73,251,42,27,70,179,42,17,51,077,42*78


$GPRMC,000442.000,A,5959.9951,N,03000.0000,E,018.0,180.0,280510,,*08
$GPGGA,000442.000,5959.9951,N,03000.0000,E,1,3,0.0,3.9,M,16.1,M,,*66
$GPGSV,1,1,3,09,73,251,42,27,70,179,42,17,51,077,42*78


$GPRMC,000442.000,A,5959.9951,N,03000.0000,E,018.0,180.0,280510,,*08
$GPGGA,000442.000,5959.9951,N,03000.0000,E,1,3,0.0,3.9,M,16.1,M,,*66
$GPGSV,1,1,3,09,73,251,42,27,70,179,42,17,51,077,42*78


$GPRMC,000442.000,A,5959.9951,N,03000.0000,E,018.0,180.0,280510,,*08
$GPGGA,000442.000,5959.9951,N,03000.0000,E,1,3,0.0,3.9,M,16.1,M,,*66
$GPGSV,1,1,3,09,73,251,42,27,70,179,42,17,51,077,42*78


$GPRMC,000442.000,A,5959.9951,N,03000.0000,E,018.0,180.0,280510,,*08
$GPGGA,000442.000,5959.9951,N,03000.0000,E,1,3,0.0,3.9,M,16.1,M,,*66
$GPGSV,1,1,3,09,73,251,42,27,70,179,42,17,51,077,42*78


$GPRMC,000442.000,A,5959.9951,N,03000.0000,E,018.0,180.0,280510,,*08
$GPGGA,000442.000,5959.9951,N,03000.0000,E,1,3,0.0,3.9,M,16.1,M,,*66
$GPGSV,1,1,3,09,73,251,42,27,70,179,42,17,51,077,42*78


$GPRMC,000442.000,A,5959.9951,N,03000.0000,E,018.0,180.0,280510,,*08
$GPGGA,000442.000,5959.9951,N,03000.0000,E,1,3,0.0,3.9,M,16.1,M,,*66
$GPGSV,1,1,3,09,73,251,42,27,70,179,42,17,51,077,42*78


$GPRMC,000442.000,A,5959.9951,N,03000.0000,E,018.0,180.0,280510,,*08
$GPGGA,000442.000,5959.9951,N,03000.0000,E,1,3,0.0,3.9,M,16.1,M,,*66
$GPGSV,1,1,3,09,73,251,42,27,70,179,42,17,51,077,42*78


$GPRMC,000442.000,A,5959.9951,N,03000.0000,E,018.0,180.0,280510,,*08
$GPGGA,000442.000,5959.9951,N,03000.0000,E,1,3,0.0,3.9,M,16.1,M,,*66
$GPGSV,1,1,3,09,73,251,42,27,70,179,42,17,51,077,42*78


$GPRMC,000442.000,A,5959.9951,N,03000.0000,E,018.0,180.0,280510,,*08
$GPGGA,000442.000,5959.9951,N,03000.0000,E,1,3,0.0,3.9,M,16.1,M,,*66
$GPGSV,1,1,3,09,73,251,42,27,70,179,42,17,51,077,42*78


$GPRMC,000442.000,A,5959.9951,N,03000.0000,E,018.0,180.0,280510,,*08
$GPGGA,000442.000,5959.9951,N,03000.0000,E,1,3,0.0,3.9,M,16.1,M,,*66
$GPGSV,1,1,3,09,73,251,42,27,70,179,42,17,51,077,42*78


$GPRMC,000442.000,A,5959.9951,N,03000.0000,E,018.0,180.0,280510,,*08
$GPGGA,000442.000,5959.9951,N,03000.0000,E,1,3,0.0,3.9,M,16.1,M,,*66
$GPGSV,1,1,3,09,73,251,42,27,70,179,42,17,51,077,42*78


$GPRMC,000442.000,A,5959.9951,N,03000.0000,E,018.0,180.0,280510,,*08
$GPGGA,000442.000,5959.9951,N,03000.0000,E,1,3,0.0,3.9,M,16.1,M,,*66
$GPGSV,1,1,3,09,73,251,42,27,70,179,42,17,51,077,42*78


$GPRMC,000442.000,A,5959.9951,N,03000.0000,E,018.0,180.0,280510,,*08
$GPGGA,000442.000,5959.9951,N,03000.0000,E,1,3,0.0,3.9,M,16.1,M,,*66
$GPGSV,1,1,3,09,73,251,42,27,70,179,42,17,51,077,42*78


$GPRMC,000442.000,A,5959.9951,N,03000.0000,E,018.0,180.0,280510,,*08
$GPGGA,000442.000,5959.9951,N,03000.0000,E,1,3,0.0,3.9,M,16.1,M,,*66
$GPGSV,1,1,3,09,73,251,42,27,70,179,42,17,51,077,42*78


$GPRMC,000442.000,A,5959.9951,N,03000.0000,E,018.0,180.0,280510,,*08
$GPGGA,000442.000,5959.9951,N,03000.0000,E,1,3,0.0,3.9,M,16.1,M,,*66
$GPGSV,1,1,3,09,73,251,42,27,70,179,42,17,51,077,42*78


$GPRMC,000442.000,A,5959.9951,N,03000.0000,E,018.0,180.0,280510,,*08
$GPGGA,000442.000,5959.9951,N,03000.0000,E,1,3,0.0,3.9,M,16.1,M,,*66
$GPGSV,1,1,3,09,73,251,42,27,70,179,42,17,51,077,42*78


$GPRMC,000442.000,A,5959.9951,N,03000.0000,E,018.0,180.0,280510,,*08
$GPGGA,000442.000,5959.9951,N,03000.0000,E,1,3,0.0,3.9,M,16.1,M,,*66
$GPGSV,1,1,3,09,73,251,42,27,70,179,42,17,51,077,42*78


$GPRMC,000442.000,A,5959.9951,N,03000.0000,E,018.0,180.0,280510,,*08
$GPGGA,000442.000,5959.9951,N,03000.0000,E,1,3,0.0,3.9,M,16.1,M,,*66
$GPGSV,1,1,3,09,73,251,42,27,70,179,42,17,51,077,42*78


$GPRMC,000442.000,A,5959.9951,N,03000.0000,E,018.0,180.0,280510,,*08
$GPGGA,000442.000,5959.9951,N,03000.0000,E,1,3,0.0,3.9,M,16.1,M,,*66
$GPGSV,1,1,3,09,73,251,42,27,70,179,42,17,51,077,42*78


$GPRMC,000442.000,A,5959.9951,N,03000.0000,E,018.0,180.0,280510,,*08
$GPGGA,000442.000,5959.9951,N,03000.0000,E,1,3,0.0,3.9,M,16.1,M,,*66
$GPGSV,1,1,3,09,73,251,42,27,70,179,42,17,51,077,42*78


$GPRMC,000442.000,A,5959.9951,N,03000.0000,E,018.0,180.0,280510,,*08
$GPGGA,000442.000,5959.9951,N,03000.0000,E,1,3,0.0,3.9,M,16.1,M,,*66
$GPGSV,1,1,3,09,73,251,42,27,70,179,42,17,51,077,42*78


$GPRMC,000442.000,A,5959.9951,N,03000.0000,E,018.0,180.0,280510,,*08
$GPGGA,000442.000,5959.9951,N,03000.0000,E,1,3,0.0,3.9,M,16.1,M,,*66
$GPGSV,1,1,3,09,73,251,42,27,70,179,42,17,51,077,42*78


$GPRMC,000442.000,A,5959.9951,N,03000.0000,E,018.0,180.0,280510,,*08
$GPGGA,000442.000,5959.9951,N,03000.0000,E,1,3,0.0,3.9,M,16.1,M,,*66
$GPGSV,1,1,3,09,73,251,42,27,70,179,42,17,51,077,42*78


$GPRMC,000442.000,A,5959.9951,N,03000.0000,E,018.0,180.0,280510,,*08
$GPGGA,000442.000,5959.9951,N,03000.0000,E,1,3,0.0,3.9,M,16.1,M,,*66
$GPGSV,1,1,3,09,73,251,42,27,70,179,42,17,51,077,42*78


$GPRMC,000442.000,A,5959.9951,N,03000.0000,E,018.0,180.0,280510,,*08
$GPGGA,000442.000,5959.9951,N,03000.0000,E,1,3,0.0,3.9,M,16.1,M,,*66
$GPGSV,1,1,3,09,73,251,42,27,70,179,42,17,51,077,42*78


$GPRMC,000442.000,A,5959.9951,N,03000.0000,E,018.0,180.0,280510,,*08
$GPGGA,000442.000,5959.9951,N,03000.0000,E,1,3,0.0,3.9,M,16.1,M,,*66
$GPGSV,1,1,3,09,73,251,42,27,70,179,42,17,51,077,42*78


$GPRMC,000442.000,A,5959.9951,N,03000.0000,E,018.0,180.0,280510,,*08
$GPGGA,000442.000,5959.9951,N,03000.0000,E,1,3,0.0,3.9,M,16.1,M,,*66
$GPGSV,1,1,3,09,73,251,42,27,70,179,42,17,51,077,42*78


$GPRMC,000442.000,A,5959.9951,N,03000.0000,E,018.0,180.0,280510,,*08
$GPGGA,000442.000,5959.9951,N,03000.0000,E,1,3,0.0,3.9,M,16.1,M,,*66
$GPGSV,1,1,3,09,73,251,42,27,70,179,42,17,51,077,42*78


$GPRMC,000443.000,A,5959.9887,N,03000.0000,E,027.7,180.0,280510,,*08
$GPGGA,000443.000,5959.9887,N,03000.0000,E,1,4,0.0,3.9,M,16.1,M,,*6A
$GPGSV,1,1,4,09,73,251,42,27,70,179,42,17,51,077,42,12,34,252,42*48


$GPRMC,000443.000,A,5959.9887,N,03000.0000,E,027.7,180.0,280510,,*08
$GPGGA,000443.000,5959.9887,N,03000.0000,E,1,4,0.0,3.9,M,16.1,M,,*6A
$GPGSV,1,1,4,09,73,251,42,27,70,179,42,17,51,077,42,12,34,252,42*48


$GPRMC,000443.000,A,5959.9887,N,03000.0000,E,027.7,180.0,280510,,*08
$GPGGA,000443.000,5959.9887,N,03000.0000,E,1,4,0.0,3.9,M,16.1,M,,*6A
$GPGSV,1,1,4,09,73,251,42,27,70,179,42,17,51,077,42,12,34,252,42*48


$GPRMC,000443.000,A,5959.9887,N,03000.0000,E,027.7,180.0,280510,,*08
$GPGGA,000443.000,5959.9887,N,03000.0000,E,1,4,0.0,3.9,M,16.1,M,,*6A
$GPGSV,1,1,4,09,73,251,42,27,70,179,42,17,51,077,42,12,34,252,42*48


$GPRMC,000443.000,A,5959.9887,N,03000.0000,E,027.7,180.0,280510,,*08
$GPGGA,000443.000,5959.9887,N,03000.0000,E,1,4,0.0,3.9,M,16.1,M,,*6A
$GPGSV,1,1,4,09,73,251,42,27,70,179,42,17,51,077,42,12,34,252,42*48


$GPRMC,000443.000,A,5959.9887,N,03000.0000,E,027.7,180.0,280510,,*08
$GPGGA,000443.000,5959.9887,N,03000.0000,E,1,4,0.0,3.9,M,16.1,M,,*6A
$GPGSV,1,1,4,09,73,251,42,27,70,179,42,17,51,077,42,12,34,252,42*48


$GPRMC,000443.000,A,5959.9887,N,03000.0000,E,027.7,180.0,280510,,*08
$GPGGA,000443.000,5959.9887,N,03000.0000,E,1,4,0.0,3.9,M,16.1,M,,*6A
$GPGSV,1,1,4,09,73,251,42,27,70,179,42,17,51,077,42,12,34,252,42*48


$GPRMC,000443.000,A,5959.9887,N,03000.0000,E,027.7,180.0,280510,,*08
$GPGGA,000443.000,5959.9887,N,03000.0000,E,1,4,0.0,3.9,M,16.1,M,,*6A
$GPGSV,1,1,4,09,73,251,42,27,70,179,42,17,51,077,42,12,34,252,42*48


$GPRMC,000443.000,A,5959.9887,N,03000.0000,E,027.7,180.0,280510,,*08
$GPGGA,000443.000,5959.9887,N,03000.0000,E,1,4,0.0,3.9,M,16.1,M,,*6A
$GPGSV,1,1,4,09,73,251,42,27,70,179,42,17,51,077,42,12,34,252,42*48


$GPRMC,000443.000,A,5959.9887,N,03000.0000,E,027.7,180.0,280510,,*08
$GPGGA,000443.000,5959.9887,N,03000.0000,E,1,4,0.0,3.9,M,16.1,M,,*6A
$GPGSV,1,1,4,09,73,251,42,27,70,179,42,17,51,077,42,12,34,252,42*48


$GPRMC,000443.000,A,5959.9887,N,03000.0000,E,027.7,180.0,280510,,*08
$GPGGA,000443.000,5959.9887,N,03000.0000,E,1,4,0.0,3.9,M,16.1,M,,*6A
$GPGSV,1,1,4,09,73,251,42,27,70,179,42,17,51,077,42,12,34,252,42*48


$GPRMC,000443.000,A,5959.9887,N,03000.0000,E,027.7,180.0,280510,,*08
$GPGGA,000443.000,5959.9887,N,03000.0000,E,1,4,0.0,3.9,M,16.1,M,,*6A
$GPGSV,1,1,4,09,73,251,42,27,70,179,42,17,51,077,42,12,34,252,42*48


$GPRMC,000443.000,A,5959.9887,N,03000.0000,E,027.7,180.0,280510,,*08
$GPGGA,000443.000,5959.9887,N,03000.0000,E,1,4,0.0,3.9,M,16.1,M,,*6A
$GPGSV,1,1,4,09,73,251,42,27,70,179,42,17,51,077,42,12,34,252,42*48


$GPRMC,000443.000,A,5959.9887,N,03000.0000,E,027.7,180.0,280510,,*08
$GPGGA,000443.000,5959.9887,N,03000.0000,E,1,4,0.0,3.9,M,16.1,M,,*6A
$GPGSV,1,1,4,09,73,251,42,27,70,179,42,17,51,077,42,12,34,252,42*48


$GPRMC,000443.000,A,5959.9887,N,03000.0000,E,027.7,180.0,280510,,*08
$GPGGA,000443.000,5959.9887,N,03000.0000,E,1,4,0.0,3.9,M,16.1,M,,*6A
$GPGSV,1,1,4,09,73,251,42,27,70,179,42,17,51,077,42,12,34,252,42*48


$GPRMC,000443.000,A,5959.9887,N,03000.0000,E,027.7,180.0,280510,,*08
$GPGGA,000443.000,5959.9887,N,03000.0000,E,1,4,0.0,3.9,M,16.1,M,,*6A
$GPGSV,1,1,4,09,73,251,42,27,70,179,42,17,51,077,42,12,34,252,42*48


$GPRMC,000443.000,A,5959.9887,N,03000.0000,E,027.7,180.0,280510,,*08
$GPGGA,000443.000,5959.9887,N,03000.0000,E,1,4,0.0,3.9,M,16.1,M,,*6A
$GPGSV,1,1,4,09,73,251,42,27,70,179,42,17,51,077,42,12,34,252,42*48


$GPRMC,000443.000,A,5959.9887,N,03000.0000,E,027.7,180.0,280510,,*08
$GPGGA,000443.000,5959.9887,N,03000.0000,E,1,4,0.0,3.9,M,16.1,M,,*6A
$GPGSV,1,1,4,09,73,251,42,27,70,179,42,17,51,077,42,12,34,252,42*48


$GPRMC,000443.000,A,5959.9887,N,03000.0000,E,027.7,180.0,280510,,*08
$GPGGA,000443.000,5959.9887,N,03000.0000,E,1,4,0.0,3.9,M,16.1,M,,*6A
$GPGSV,1,1,4,09,73,251,42,27,70,179,42,17,51,077,42,12,34,252,42*48


$GPRMC,000443.000,A,5959.9887,N,03000.0000,E,027.7,180.0,280510,,*08
$GPGGA,000443.000,5959.9887,N,03000.0000,E,1,4,0.0,3.9,M,16.1,M,,*6A
$GPGSV,1,1,4,09,73,251,42,27,70,179,42,17,51,077,42,12,34,252,42*48


$GPRMC,000443.000,A,5959.9887,N,03000.0000,E,027.7,180.0,280510,,*08
$GPGGA,000443.000,5959.9887,N,03000.0000,E,1,4,0.0,3.9,M,16.1,M,,*6A
$GPGSV,1,1,4,09,73,251,42,27,70,179,42,17,51,077,42,12,34,252,42*48


$GPRMC,000443.000,A,5959.9887,N,03000.0000,E,027.7,180.0,280510,,*08
$GPGGA,000443.000,5959.9887,N,03000.0000,E,1,4,0.0,3.9,M,16.1,M,,*6A
$GPGSV,1,1,4,09,73,251,42,27,70,179,42,17,51,077,42,12,34,252,42*48


$GPRMC,000443.000,A,5959.9887,N,03000.0000,E,027.7,180.0,280510,,*08
$GPGGA,000443.000,5959.9887,N,03000.0000,E,1,4,0.0,3.9,M,16.1,M,,*6A
$GPGSV,1,1,4,09,73,251,42,27,70,179,42,17,51,077,42,12,34,252,42*48


$GPRMC,000443.000,A,5959.9887,N,03000.0000,E,027.7,180.0,280510,,*08
$GPGGA,000443.000,5959.9887,N,03000.0000,E,1,4,0.0,3.9,M,16.1,M,,*6A
$GPGSV,1,1,4,09,73,251,42,27,70,179,42,17,51,077,42,12,34,252,42*48


$GPRMC,000443.000,A,5959.9887,N,03000.0000,E,027.7,180.0,280510,,*08
$GPGGA,000443.000,5959.9887,N,03000.0000,E,1,4,0.0,3.9,M,16.1,M,,*6A
$GPGSV,1,1,4,09,73,251,42,27,70,179,42,17,51,077,42,12,34,252,42*48


$GPRMC,000443.000,A,5959.9887,N,03000.0000,E,027.7,180.0,280510,,*08
$GPGGA,000443.000,5959.9887,N,03000.0000,E,1,4,0.0,3.9,M,16.1,M,,*6A
$GPGSV,1,1,4,09,73,251,42,27,70,179,42,17,51,077,42,12,34,252,42*48


$GPRMC,000443.000,A,5959.9887,N,03000.0000,E,027.7,180.0,280510,,*08
$GPGGA,000443.000,5959.9887,N,03000.0000,E,1,4,0.0,3.9,M,16.1,M,,*6A
$GPGSV,1,1,4,09,73,251,42,27,70,179,42,17,51,077,42,12,34,252,42*48


$GPRMC,000443.000,A,5959.9887,N,03000.0000,E,027.7,180.0,280510,,*08
$GPGGA,000443.000,5959.9887,N,03000.0000,E,1,4,0.0,3.9,M,16.1,M,,*6A
$GPGSV,1,1,4,09,73,251,42,27,70,179,42,17,51,077,42,12,34,252,42*48


$GPRMC,000443.000,A,5959.9887,N,03000.0000,E,027.7,180.0,280510,,*08
$GPGGA,000443.000,5959.9887,N,03000.0000,E,1,4,0.0,3.9,M,16.1,M,,*6A
$GPGSV,1,1,4,09,73,251,42,27,70,179,42,17,51,077,42,12,34,252,42*48


$GPRMC,000443.000,A,5959.9887,N,03000.0000,E,027.7,180.0,280510,,*08
$GPGGA,000443.000,5959.9887,N,03000.0000,E,1,4,0.0,3.9,M,16.1,M,,*6A
$GPGSV,1,1,4,09,73,251,42,27,70,179,42,17,51,077,42,12,34,252,42*48


$GPRMC,000443.000,A,5959.9887,N,03000.0000,E,027.7,180.0,280510,,*08
$GPGGA,000443.000,5959.9887,N,03000.0000,E,1,4,0.0,3.9,M,16.1,M,,*6A
$GPGSV,1,1,4,09,73,251,42,27,70,179,42,17,51,077,42,12,34,252,42*48


$GPRMC,000443.000,A,5959.9887,N,03000.0000,E,027.7,180.0,280510,,*08
$GPGGA,000443.000,5959.9887,N,03000.0000,E,1,4,0.0,3.9,M,16.1,M,,*6A
$GPGSV,1,1,4,09,73,251,42,27,70,179,42,17,51,077,42,12,34,252,42*48


$GPRMC,000443.000,A,5959.9887,N,03000.0000,E,027.7,180.0,280510,,*08
$GPGGA,000443.000,5959.9887,N,03000.0000,E,1,4,0.0,3.9,M,16.1,M,,*6A
$GPGSV,1,1,4,09,73,251,42,27,70,179,42,17,51,077,42,12,34,252,42*48


$GPRMC,000443.000,A,5959.9887,N,03000.0000,E,027.7,180.0,280510,,*08
$GPGGA,000443.000,5959.9887,N,03000.0000,E,1,4,0.0,3.9,M,16.1,M,,*6A
$GPGSV,1,1,4,09,73,251,42,27,70,179,42,17,51,077,42,12,34,252,42*48


$GPRMC,000443.000,A,5959.9887,N,03000.0000,E,027.7,180.0,280510,,*08
$GPGGA,000443.000,5959.9887,N,03000.0000,E,1,4,0.0,3.9,M,16.1,M,,*6A
$GPGSV,1,1,4,09,73,251,42,27,70,179,42,17,51,077,42,12,34,252,42*48


$GPRMC,000443.000,A,5959.9887,N,03000.0000,E,027.7,180.0,280510,,*08
$GPGGA,000443.000,5959.9887,N,03000.0000,E,1,4,0.0,3.9,M,16.1,M,,*6A
$GPGSV,1,1,4,09,73,251,42,27,70,179,42,17,51,077,42,12,34,252,42*48


$GPRMC,000443.000,A,5959.9887,N,03000.0000,E,027.7,180.0,280510,,*08
$GPGGA,000443.000,5959.9887,N,03000.0000,E,1,4,0.0,3.9,M,16.1,M,,*6A
$GPGSV,1,1,4,09,73,251,42,27,70,179,42,17,51,077,42,12,34,252,42*48


$GPRMC,000443.000,A,5959.9887,N,03000.0000,E,027.7,180.0,280510,,*08
$GPGGA,000443.000,5959.9887,N,03000.0000,E,1,4,0.0,3.9,M,16.1,M,,*6A
$GPGSV,1,1,4,09,73,251,42,27,70,179,42,17,51,077,42,12,34,252,42*48


$GPRMC,000443.000,A,5959.9887,N,03000.0000,E,027.7,180.0,280510,,*08
$GPGGA,000443.000,5959.9887,N,03000.0000,E,1,4,0.0,3.9,M,16.1,M,,*6A
$GPGSV,1,1,4,09,73,251,42,27,70,179,42,17,51,077,42,12,34,252,42*48


$GPRMC,000443.000,A,5959.9887,N,03000.0000,E,027.7,180.0,280510,,*08
$GPGGA,000443.000,5959.9887,N,03000.0000,E,1,4,0.0,3.9,M,16.1,M,,*6A
$GPGSV,1,1,4,09,73,251,42,27,70,179,42,17,51,077,42,12,34,252,42*48


$GPRMC,000443.000,A,5959.9887,N,03000.0000,E,027.7,180.0,280510,,*08
$GPGGA,000443.000,5959.9887,N,03000.0000,E,1,4,0.0,3.9,M,16.1,M,,*6A
$GPGSV,1,1,4,09,73,251,42,27,70,179,42,17,51,077,42,12,34,252,42*48


$GPRMC,000443.000,A,5959.9887,N,03000.0000,E,027.7,180.0,280510,,*08
$GPGGA,000443.000,5959.9887,N,03000.0000,E,1,4,0.0,3.9,M,16.1,M,,*6A
$GPGSV,1,1,4,09,73,251,42,27,70,179,42,17,51,077,42,12,34,252,42*48


$GPRMC,000443.000,A,5959.9887,N,03000.0000,E,027.7,180.0,280510,,*08
$GPGGA,000443.000,5959.9887,N,03000.0000,E,1,4,0.0,3.9,M,16.1,M,,*6A
$GPGSV,1,1,4,09,73,251,42,27,70,179,42,17,51,077,42,12,34,252,42*48


$GPRMC,000443.000,A,5959.9887,N,03000.0000,E,027.7,180.0,280510,,*08
$GPGGA,000443.000,5959.9887,N,03000.0000,E,1,4,0.0,3.9,M,16.1,M,,*6A
$GPGSV,1,1,4,09,73,251,42,27,70,179,42,17,51,077,42,12,34,252,42*48


$GPRMC,000443.000,A,5959.9887,N,03000.0000,E,027.7,180.0,280510,,*08
$GPGGA,000443.000,5959.9887,N,03000.0000,E,1,4,0.0,3.9,M,16.1,M,,*6A
$GPGSV,1,1,4,09,73,251,42,27,70,179,42,17,51,077,42,12,34,252,42*48


$GPRMC,000443.000,A,5959.9887,N,03000.0000,E,027.7,180.0,280510,,*08
$GPGGA,000443.000,5959.9887,N,03000.0000,E,1,4,0.0,3.9,M,16.1,M,,*6A
$GPGSV,1,1,4,09,73,251,42,27,70,179,42,17,51,077,42,12,34,252,42*48


$GPRMC,000443.000,A,5959.9887,N,03000.0000,E,027.7,180.0,280510,,*08
$GPGGA,000443.000,5959.9887,N,03000.0000,E,1,4,0.0,3.9,M,16.1,M,,*6A
$GPGSV,1,1,4,09,73,251,42,27,70,179,42,17,51,077,42,12,34,252,42*48


$GPRMC,000443.000,A,5959.9887,N,03000.0000,E,027.7,180.0,280510,,*08
$GPGGA,000443.000,5959.9887,N,03000.0000,E,1,4,0.0,3.9,M,16.1,M,,*6A
$GPGSV,1,1,4,09,73,251,42,27,70,179,42,17,51,077,42,12,34,252,42*48


$GPRMC,000443.000,A,5959.9887,N,03000.0000,E,027.7,180.0,280510,,*08
$GPGGA,000443.000,5959.9887,N,03000.0000,E,1,4,0.0,3.9,M,16.1,M,,*6A
$GPGSV,1,1,4,09,73,251,42,27,70,179,42,17,51,077,42,12,34,252,42*48


$GPRMC,000443.000,A,5959.9887,N,03000.0000,E,027.7,180.0,280510,,*08
$GPGGA,000443.000,5959.9887,N,03000.0000,E,1,4,0.0,3.9,M,16.1,M,,*6A
$GPGSV,1,1,4,09,73,251,42,27,70,179,42,17,51,077,42,12,34,252,42*48


$GPRMC,000444.000,A,5959.9795,N,03000.0000,E,037.4,180.0,280510,,*01
$GPGGA,000444.000,5959.9795,N,03000.0000,E,1,4,0.0,3.9,M,16.1,M,,*61
$GPGSV,1,1,4,09,73,251,42,27,70,179,42,17,51,077,42,12,34,252,42*48


$GPRMC,000444.000,A,5959.9795,N,03000.0000,E,037.4,180.0,280510,,*01
$GPGGA,000444.000,5959.9795,N,03000.0000,E,1,4,0.0,3.9,M,16.1,M,,*61
$GPGSV,1,1,4,09,73,251,42,27,70,179,42,17,51,077,42,12,34,252,42*48


$GPRMC,000444.000,A,5959.9795,N,03000.0000,E,037.4,180.0,280510,,*01
$GPGGA,000444.000,5959.9795,N,03000.0000,E,1,4,0.0,3.9,M,16.1,M,,*61
$GPGSV,1,1,4,09,73,251,42,27,70,179,42,17,51,077,42,12,34,252,42*48


$GPRMC,000444.000,A,5959.9795,N,03000.0000,E,037.4,180.0,280510,,*01
$GPGGA,000444.000,5959.9795,N,03000.0000,E,1,4,0.0,3.9,M,16.1,M,,*61
$GPGSV,1,1,4,09,73,251,42,27,70,179,42,17,51,077,42,12,34,252,42*48


$GPRMC,000444.000,A,5959.9795,N,03000.0000,E,037.4,180.0,280510,,*01
$GPGGA,000444.000,5959.9795,N,03000.0000,E,1,4,0.0,3.9,M,16.1,M,,*61
$GPGSV,1,1,4,09,73,251,42,27,70,179,42,17,51,077,42,12,34,252,42*48


$GPRMC,000444.000,A,5959.9795,N,03000.0000,E,037.4,180.0,280510,,*01
$GPGGA,000444.000,5959.9795,N,03000.0000,E,1,4,0.0,3.9,M,16.1,M,,*61
$GPGSV,1,1,4,09,73,251,42,27,70,179,42,17,51,077,42,12,34,252,42*48


$GPRMC,000444.000,A,5959.9795,N,03000.0000,E,037.4,180.0,280510,,*01
$GPGGA,000444.000,5959.9795,N,03000.0000,E,1,4,0.0,3.9,M,16.1,M,,*61
$GPGSV,1,1,4,09,73,251,42,27,70,179,42,17,51,077,42,12,34,252,42*48


$GPRMC,000444.000,A,5959.9795,N,03000.0000,E,037.4,180.0,280510,,*01
$GPGGA,000444.000,5959.9795,N,03000.0000,E,1,4,0.0,3.9,M,16.1,M,,*61
$GPGSV,1,1,4,09,73,251,42,27,70,179,42,17,51,077,42,12,34,252,42*48


$GPRMC,000444.000,A,5959.9795,N,03000.0000,E,037.4,180.0,280510,,*01
$GPGGA,000444.000,5959.9795,N,03000.0000,E,1,4,0.0,3.9,M,16.1,M,,*61
$GPGSV,1,1,4,09,73,251,42,27,70,179,42,17,51,077,42,12,34,252,42*48


$GPRMC,000444.000,A,5959.9795,N,03000.0000,E,037.4,180.0,280510,,*01
$GPGGA,000444.000,5959.9795,N,03000.0000,E,1,4,0.0,3.9,M,16.1,M,,*61
$GPGSV,1,1,4,09,73,251,42,27,70,179,42,17,51,077,42,12,34,252,42*48


$GPRMC,000444.000,A,5959.9795,N,03000.0000,E,037.4,180.0,280510,,*01
$GPGGA,000444.000,5959.9795,N,03000.0000,E,1,4,0.0,3.9,M,16.1,M,,*61
$GPGSV,1,1,4,09,73,251,42,27,70,179,42,17,51,077,42,12,34,252,42*48


$GPRMC,000444.000,A,5959.9795,N,03000.0000,E,037.4,180.0,280510,,*01
$GPGGA,000444.000,5959.9795,N,03000.0000,E,1,4,0.0,3.9,M,16.1,M,,*61
$GPGSV,1,1,4,09,73,251,42,27,70,179,42,17,51,077,42,12,34,252,42*48


$GPRMC,000444.000,A,5959.9795,N,03000.0000,E,037.4,180.0,280510,,*01
$GPGGA,000444.000,5959.9795,N,03000.0000,E,1,4,0.0,3.9,M,16.1,M,,*61
$GPGSV,1,1,4,09,73,251,42,27,70,179,42,17,51,077,42,12,34,252,42*48


$GPRMC,000444.000,A,5959.9795,N,03000.0000,E,037.4,180.0,280510,,*01
$GPGGA,000444.000,5959.9795,N,03000.0000,E,1,4,0.0,3.9,M,16.1,M,,*61
$GPGSV,1,1,4,09,73,251,42,27,70,179,42,17,51,077,42,12,34,252,42*48


$GPRMC,000444.000,A,5959.9795,N,03000.0000,E,037.4,180.0,280510,,*01
$GPGGA,000444.000,5959.9795,N,03000.0000,E,1,4,0.0,3.9,M,16.1,M,,*61
$GPGSV,1,1,4,09,73,251,42,27,70,179,42,17,51,077,42,12,34,252,42*48


$GPRMC,000444.000,A,5959.9795,N,03000.0000,E,037.4,180.0,280510,,*01
$GPGGA,000444.000,5959.9795,N,03000.0000,E,1,4,0.0,3.9,M,16.1,M,,*61
$GPGSV,1,1,4,09,73,251,42,27,70,179,42,17,51,077,42,12,34,252,42*48


$GPRMC,000444.000,A,5959.9795,N,03000.0000,E,037.4,180.0,280510,,*01
$GPGGA,000444.000,5959.9795,N,03000.0000,E,1,4,0.0,3.9,M,16.1,M,,*61
$GPGSV,1,1,4,09,73,251,42,27,70,179,42,17,51,077,42,12,34,252,42*48


$GPRMC,000444.000,A,5959.9795,N,03000.0000,E,037.4,180.0,280510,,*01
$GPGGA,000444.000,5959.9795,N,03000.0000,E,1,4,0.0,3.9,M,16.1,M,,*61
$GPGSV,1,1,4,09,73,251,42,27,70,179,42,17,51,077,42,12,34,252,42*48


$GPRMC,000444.000,A,5959.9795,N,03000.0000,E,037.4,180.0,280510,,*01
$GPGGA,000444.000,5959.9795,N,03000.0000,E,1,4,0.0,3.9,M,16.1,M,,*61
$GPGSV,1,1,4,09,73,251,42,27,70,179,42,17,51,077,42,12,34,252,42*48


$GPRMC,000444.000,A,5959.9795,N,03000.0000,E,037.4,180.0,280510,,*01
$GPGGA,000444.000,5959.9795,N,03000.0000,E,1,4,0.0,3.9,M,16.1,M,,*61
$GPGSV,1,1,4,09,73,251,42,27,70,179,42,17,51,077,42,12,34,252,42*48


$GPRMC,000444.000,A,5959.9795,N,03000.0000,E,037.4,180.0,280510,,*01
$GPGGA,000444.000,5959.9795,N,03000.0000,E,1,4,0.0,3.9,M,16.1,M,,*61
$GPGSV,1,1,4,09,73,251,42,27,70,179,42,17,51,077,42,12,34,252,42*48


$GPRMC,000444.000,A,5959.9795,N,03000.0000,E,037.4,180.0,280510,,*01
$GPGGA,000444.000,5959.9795,N,03000.0000,E,1,4,0.0,3.9,M,16.1,M,,*61
$GPGSV,1,1,4,09,73,251,42,27,70,179,42,17,51,077,42,12,34,252,42*48


$GPRMC,000444.000,A,5959.9795,N,03000.0000,E,037.4,180.0,280510,,*01
$GPGGA,000444.000,5959.9795,N,03000.0000,E,1,4,0.0,3.9,M,16.1,M,,*61
$GPGSV,1,1,4,09,73,251,42,27,70,179,42,17,51,077,42,12,34,252,42*48


$GPRMC,000444.000,A,5959.9795,N,03000.0000,E,037.4,180.0,280510,,*01
$GPGGA,000444.000,5959.9795,N,03000.0000,E,1,4,0.0,3.9,M,16.1,M,,*61
$GPGSV,1,1,4,09,73,251,42,27,70,179,42,17,51,077,42,12,34,252,42*48


$GPRMC,000444.000,A,5959.9795,N,03000.0000,E,037.4,180.0,280510,,*01
$GPGGA,000444.000,5959.9795,N,03000.0000,E,1,4,0.0,3.9,M,16.1,M,,*61
$GPGSV,1,1,4,09,73,251,42,27,70,179,42,17,51,077,42,12,34,252,42*48


$GPRMC,000444.000,A,5959.9795,N,03000.0000,E,037.4,180.0,280510,,*01
$GPGGA,000444.000,5959.9795,N,03000.0000,E,1,4,0.0,3.9,M,16.1,M,,*61
$GPGSV,1,1,4,09,73,251,42,27,70,179,42,17,51,077,42,12,34,252,42*48


$GPRMC,000444.000,A,5959.9795,N,03000.0000,E,037.4,180.0,280510,,*01
$GPGGA,000444.000,5959.9795,N,03000.0000,E,1,4,0.0,3.9,M,16.1,M,,*61
$GPGSV,1,1,4,09,73,251,42,27,70,179,42,17,51,077,42,12,34,252,42*48


$GPRMC,000444.000,A,5959.9795,N,03000.0000,E,037.4,180.0,280510,,*01
$GPGGA,000444.000,5959.9795,N,03000.0000,E,1,4,0.0,3.9,M,16.1,M,,*61
$GPGSV,1,1,4,09,73,251,42,27,70,179,42,17,51,077,42,12,34,252,42*48


$GPRMC,000444.000,A,5959.9795,N,03000.0000,E,037.4,180.0,280510,,*01
$GPGGA,000444.000,5959.9795,N,03000.0000,E,1,4,0.0,3.9,M,16.1,M,,*61
$GPGSV,1,1,4,09,73,251,42,27,70,179,42,17,51,077,42,12,34,252,42*48


$GPRMC,000444.000,A,5959.9795,N,03000.0000,E,037.4,180.0,280510,,*01
$GPGGA,000444.000,5959.9795,N,03000.0000,E,1,4,0.0,3.9,M,16.1,M,,*61
$GPGSV,1,1,4,09,73,251,42,27,70,179,42,17,51,077,42,12,34,252,42*48


$GPRMC,000444.000,A,5959.9795,N,03000.0000,E,037.4,180.0,280510,,*01
$GPGGA,000444.000,5959.9795,N,03000.0000,E,1,4,0.0,3.9,M,16.1,M,,*61
$GPGSV,1,1,4,09,73,251,42,27,70,179,42,17,51,077,42,12,34,252,42*48


$GPRMC,000444.000,A,5959.9795,N,03000.0000,E,037.4,180.0,280510,,*01
$GPGGA,000444.000,5959.9795,N,03000.0000,E,1,4,0.0,3.9,M,16.1,M,,*61
$GPGSV,1,1,4,09,73,251,42,27,70,179,42,17,51,077,42,12,34,252,42*48


$GPRMC,000444.000,A,5959.9795,N,03000.0000,E,037.4,180.0,280510,,*01
$GPGGA,000444.000,5959.9795,N,03000.0000,E,1,4,0.0,3.9,M,16.1,M,,*61
$GPGSV,1,1,4,09,73,251,42,27,70,179,42,17,51,077,42,12,34,252,42*48


$GPRMC,000444.000,A,5959.9795,N,03000.0000,E,037.4,180.0,280510,,*01
$GPGGA,000444.000,5959.9795,N,03000.0000,E,1,4,0.0,3.9,M,16.1,M,,*61
$GPGSV,1,1,4,09,73,251,42,27,70,179,42,17,51,077,42,12,34,252,42*48


$GPRMC,000444.000,A,5959.9795,N,03000.0000,E,037.4,180.0,280510,,*01
$GPGGA,000444.000,5959.9795,N,03000.0000,E,1,4,0.0,3.9,M,16.1,M,,*61
$GPGSV,1,1,4,09,73,251,42,27,70,179,42,17,51,077,42,12,34,252,42*48


$GPRMC,000444.000,A,5959.9795,N,03000.0000,E,037.4,180.0,280510,,*01
$GPGGA,000444.000,5959.9795,N,03000.0000,E,1,4,0.0,3.9,M,16.1,M,,*61
$GPGSV,1,1,4,09,73,251,42,27,70,179,42,17,51,077,42,12,34,252,42*48


$GPRMC,000444.000,A,5959.9795,N,03000.0000,E,037.4,180.0,280510,,*01
$GPGGA,000444.000,5959.9795,N,03000.0000,E,1,4,0.0,3.9,M,16.1,M,,*61
$GPGSV,1,1,4,09,73,251,42,27,70,179,42,17,51,077,42,12,34,252,42*48


$GPRMC,000444.000,A,5959.9795,N,03000.0000,E,037.4,180.0,280510,,*01
$GPGGA,000444.000,5959.9795,N,03000.0000,E,1,4,0.0,3.9,M,16.1,M,,*61
$GPGSV,1,1,4,09,73,251,42,27,70,179,42,17,51,077,42,12,34,252,42*48


$GPRMC,000444.000,A,5959.9795,N,03000.0000,E,037.4,180.0,280510,,*01
$GPGGA,000444.000,5959.9795,N,03000.0000,E,1,4,0.0,3.9,M,16.1,M,,*61
$GPGSV,1,1,4,09,73,251,42,27,70,179,42,17,51,077,42,12,34,252,42*48


$GPRMC,000444.000,A,5959.9795,N,03000.0000,E,037.4,180.0,280510,,*01
$GPGGA,000444.000,5959.9795,N,03000.0000,E,1,4,0.0,3.9,M,16.1,M,,*61
$GPGSV,1,1,4,09,73,251,42,27,70,179,42,17,51,077,42,12,34,252,42*48


$GPRMC,000444.000,A,5959.9795,N,03000.0000,E,037.4,180.0,280510,,*01
$GPGGA,000444.000,5959.9795,N,03000.0000,E,1,4,0.0,3.9,M,16.1,M,,*61
$GPGSV,1,1,4,09,73,251,42,27,70,179,42,17,51,077,42,12,34,252,42*48


$GPRMC,000444.000,A,5959.9795,N,03000.0000,E,037.4,180.0,280510,,*01
$GPGGA,000444.000,5959.9795,N,03000.0000,E,1,4,0.0,3.9,M,16.1,M,,*61
$GPGSV,1,1,4,09,73,251,42,27,70,179,42,17,51,077,42,12,34,252,42*48


$GPRMC,000444.000,A,5959.9795,N,03000.0000,E,037.4,180.0,280510,,*01
$GPGGA,000444.000,5959.9795,N,03000.0000,E,1,4,0.0,3.9,M,16.1,M,,*61
$GPGSV,1,1,4,09,73,251,42,27,70,179,42,17,51,077,42,12,34,252,42*48


$GPRMC,000444.000,A,5959.9795,N,03000.0000,E,037.4,180.0,280510,,*01
$GPGGA,000444.000,5959.9795,N,03000.0000,E,1,4,0.0,3.9,M,16.1,M,,*61
$GPGSV,1,1,4,09,73,251,42,27,70,179,42,17,51,077,42,12,34,252,42*48


$GPRMC,000444.000,A,5959.9795,N,03000.0000,E,037.4,180.0,280510,,*01
$GPGGA,000444.000,5959.9795,N,03000.0000,E,1,4,0.0,3.9,M,16.1,M,,*61
$GPGSV,1,1,4,09,73,251,42,27,70,179,42,17,51,077,42,12,34,252,42*48


$GPRMC,000444.000,A,5959.9795,N,03000.0000,E,037.4,180.0,280510,,*01
$GPGGA,000444.000,5959.9795,N,03000.0000,E,1,4,0.0,3.9,M,16.1,M,,*61
$GPGSV,1,1,4,09,73,251,42,27,70,179,42,17,51,077,42,12,34,252,42*48


$GPRMC,000444.000,A,5959.9795,N,03000.0000,E,037.4,180.0,280510,,*01
$GPGGA,000444.000,5959.9795,N,03000.0000,E,1,4,0.0,3.9,M,16.1,M,,*61
$GPGSV,1,1,4,09,73,251,42,27,70,179,42,17,51,077,42,12,34,252,42*48


$GPRMC,000444.000,A,5959.9795,N,03000.0000,E,037.4,180.0,280510,,*01
$GPGGA,000444.000,5959.9795,N,03000.0000,E,1,4,0.0,3.9,M,16.1,M,,*61
$GPGSV,1,1,4,09,73,251,42,27,70,179,42,17,51,077,42,12,34,252,42*48


$GPRMC,000444.000,A,5959.9795,N,03000.0000,E,037.4,180.0,280510,,*01
$GPGGA,000444.000,5959.9795,N,03000.0000,E,1,4,0.0,3.9,M,16.1,M,,*61
$GPGSV,1,1,4,09,73,251,42,27,70,179,42,17,51,077,42,12,34,252,42*48


$GPRMC,000444.000,A,5959.9795,N,03000.0000,E,037.4,180.0,280510,,*01
$GPGGA,000444.000,5959.9795,N,03000.0000,E,1,4,0.0,3.9,M,16.1,M,,*61
$GPGSV,1,1,4,09,73,251,42,27,70,179,42,17,51,077,42,12,34,252,42*48


$GPRMC,000444.000,A,5959.9795,N,03000.0000,E,037.4,180.0,280510,,*01
$GPGGA,000444.000,5959.9795,N,03000.0000,E,1,4,0.0,3.9,M,16.1,M,,*61
$GPGSV,1,1,4,09,73,251,42,27,70,179,42,17,51,077,42,12,34,252,42*48


$GPRMC,000445.000,A,5959.9677,N,03000.0000,E,047.1,180.0,280510,,*0F
$GPGGA,000445.000,5959.9677,N,03000.0000,E,1,4,0.0,3.9,M,16.1,M,,*6D
$GPGSV,1,1,4,09,73,251,42,27,70,179,42,17,51,077,42,12,34,252,42*48


$GPRMC,000445.000,A,5959.9677,N,03000.0000,E,047.1,180.0,280510,,*0F
$GPGGA,000445.000,5959.9677,N,03000.0000,E,1,4,0.0,3.9,M,16.1,M,,*6D
$GPGSV,1,1,4,09,73,251,42,27,70,179,42,17,51,077,42,12,34,252,42*48


$GPRMC,000445.000,A,5959.9677,N,03000.0000,E,047.1,180.0,280510,,*0F
$GPGGA,000445.000,5959.9677,N,03000.0000,E,1,4,0.0,3.9,M,16.1,M,,*6D
$GPGSV,1,1,4,09,73,251,42,27,70,179,42,17,51,077,42,12,34,252,42*48


$GPRMC,000445.000,A,5959.9677,N,03000.0000,E,047.1,180.0,280510,,*0F
$GPGGA,000445.000,5959.9677,N,03000.0000,E,1,4,0.0,3.9,M,16.1,M,,*6D
$GPGSV,1,1,4,09,73,251,42,27,70,179,42,17,51,077,42,12,34,252,42*48


$GPRMC,000445.000,A,5959.9677,N,03000.0000,E,047.1,180.0,280510,,*0F
$GPGGA,000445.000,5959.9677,N,03000.0000,E,1,4,0.0,3.9,M,16.1,M,,*6D
$GPGSV,1,1,4,09,73,251,42,27,70,179,42,17,51,077,42,12,34,252,42*48


$GPRMC,000445.000,A,5959.9677,N,03000.0000,E,047.1,180.0,280510,,*0F
$GPGGA,000445.000,5959.9677,N,03000.0000,E,1,4,0.0,3.9,M,16.1,M,,*6D
$GPGSV,1,1,4,09,73,251,42,27,70,179,42,17,51,077,42,12,34,252,42*48


$GPRMC,000445.000,A,5959.9677,N,03000.0000,E,047.1,180.0,280510,,*0F
$GPGGA,000445.000,5959.9677,N,03000.0000,E,1,4,0.0,3.9,M,16.1,M,,*6D
$GPGSV,1,1,4,09,73,251,42,27,70,179,42,17,51,077,42,12,34,252,42*48


$GPRMC,000445.000,A,5959.9677,N,03000.0000,E,047.1,180.0,280510,,*0F
$GPGGA,000445.000,5959.9677,N,03000.0000,E,1,4,0.0,3.9,M,16.1,M,,*6D
$GPGSV,1,1,4,09,73,251,42,27,70,179,42,17,51,077,42,12,34,252,42*48


$GPRMC,000445.000,A,5959.9677,N,03000.0000,E,047.1,180.0,280510,,*0F
$GPGGA,000445.000,5959.9677,N,03000.0000,E,1,4,0.0,3.9,M,16.1,M,,*6D
$GPGSV,1,1,4,09,73,251,42,27,70,179,42,17,51,077,42,12,34,252,42*48


$GPRMC,000445.000,A,5959.9677,N,03000.0000,E,047.1,180.0,280510,,*0F
$GPGGA,000445.000,5959.9677,N,03000.0000,E,1,4,0.0,3.9,M,16.1,M,,*6D
$GPGSV,1,1,4,09,73,251,42,27,70,179,42,17,51,077,42,12,34,252,42*48


$GPRMC,000445.000,A,5959.9677,N,03000.0000,E,047.1,180.0,280510,,*0F
$GPGGA,000445.000,5959.9677,N,03000.0000,E,1,4,0.0,3.9,M,16.1,M,,*6D
$GPGSV,1,1,4,09,73,251,42,27,70,179,42,17,51,077,42,12,34,252,42*48


$GPRMC,000445.000,A,5959.9677,N,03000.0000,E,047.1,180.0,280510,,*0F
$GPGGA,000445.000,5959.9677,N,03000.0000,E,1,4,0.0,3.9,M,16.1,M,,*6D
$GPGSV,1,1,4,09,73,251,42,27,70,179,42,17,51,077,42,12,34,252,42*48


$GPRMC,000445.000,A,5959.9677,N,03000.0000,E,047.1,180.0,280510,,*0F
$GPGGA,000445.000,5959.9677,N,03000.0000,E,1,4,0.0,3.9,M,16.1,M,,*6D
$GPGSV,1,1,4,09,73,251,42,27,70,179,42,17,51,077,42,12,34,252,42*48


$GPRMC,000445.000,A,5959.9677,N,03000.0000,E,047.1,180.0,280510,,*0F
$GPGGA,000445.000,5959.9677,N,03000.0000,E,1,4,0.0,3.9,M,16.1,M,,*6D
$GPGSV,1,1,4,09,73,251,42,27,70,179,42,17,51,077,42,12,34,252,42*48


$GPRMC,000445.000,A,5959.9677,N,03000.0000,E,047.1,180.0,280510,,*0F
$GPGGA,000445.000,5959.9677,N,03000.0000,E,1,4,0.0,3.9,M,16.1,M,,*6D
$GPGSV,1,1,4,09,73,251,42,27,70,179,42,17,51,077,42,12,34,252,42*48


$GPRMC,000445.000,A,5959.9677,N,03000.0000,E,047.1,180.0,280510,,*0F
$GPGGA,000445.000,5959.9677,N,03000.0000,E,1,4,0.0,3.9,M,16.1,M,,*6D
$GPGSV,1,1,4,09,73,251,42,27,70,179,42,17,51,077,42,12,34,252,42*48


$GPRMC,000445.000,A,5959.9677,N,03000.0000,E,047.1,180.0,280510,,*0F
$GPGGA,000445.000,5959.9677,N,03000.0000,E,1,4,0.0,3.9,M,16.1,M,,*6D
$GPGSV,1,1,4,09,73,251,42,27,70,179,42,17,51,077,42,12,34,252,42*48


$GPRMC,000445.000,A,5959.9677,N,03000.0000,E,047.1,180.0,280510,,*0F
$GPGGA,000445.000,5959.9677,N,03000.0000,E,1,4,0.0,3.9,M,16.1,M,,*6D
$GPGSV,1,1,4,09,73,251,42,27,70,179,42,17,51,077,42,12,34,252,42*48


$GPRMC,000445.000,A,5959.9677,N,03000.0000,E,047.1,180.0,280510,,*0F
$GPGGA,000445.000,5959.9677,N,03000.0000,E,1,4,0.0,3.9,M,16.1,M,,*6D
$GPGSV,1,1,4,09,73,251,42,27,70,179,42,17,51,077,42,12,34,252,42*48


$GPRMC,000445.000,A,5959.9677,N,03000.0000,E,047.1,180.0,280510,,*0F
$GPGGA,000445.000,5959.9677,N,03000.0000,E,1,4,0.0,3.9,M,16.1,M,,*6D
$GPGSV,1,1,4,09,73,251,42,27,70,179,42,17,51,077,42,12,34,252,42*48


$GPRMC,000445.000,A,5959.9677,N,03000.0000,E,047.1,180.0,280510,,*0F
$GPGGA,000445.000,5959.9677,N,03000.0000,E,1,4,0.0,3.9,M,16.1,M,,*6D
$GPGSV,1,1,4,09,73,251,42,27,70,179,42,17,51,077,42,12,34,252,42*48


$GPRMC,000445.000,A,5959.9677,N,03000.0000,E,047.1,180.0,280510,,*0F
$GPGGA,000445.000,5959.9677,N,03000.0000,E,1,4,0.0,3.9,M,16.1,M,,*6D
$GPGSV,1,1,4,09,73,251,42,27,70,179,42,17,51,077,42,12,34,252,42*48


$GPRMC,000445.000,A,5959.9677,N,03000.0000,E,047.1,180.0,280510,,*0F
$GPGGA,000445.000,5959.9677,N,03000.0000,E,1,4,0.0,3.9,M,16.1,M,,*6D
$GPGSV,1,1,4,09,73,251,42,27,70,179,42,17,51,077,42,12,34,252,42*48


$GPRMC,000445.000,A,5959.9677,N,03000.0000,E,047.1,180.0,280510,,*0F
$GPGGA,000445.000,5959.9677,N,03000.0000,E,1,4,0.0,3.9,M,16.1,M,,*6D
$GPGSV,1,1,4,09,73,251,42,27,70,179,42,17,51,077,42,12,34,252,42*48


$GPRMC,000445.000,A,5959.9677,N,03000.0000,E,047.1,180.0,280510,,*0F
$GPGGA,000445.000,5959.9677,N,03000.0000,E,1,4,0.0,3.9,M,16.1,M,,*6D
$GPGSV,1,1,4,09,73,251,42,27,70,179,42,17,51,077,42,12,34,252,42*48


$GPRMC,000445.000,A,5959.9677,N,03000.0000,E,047.1,180.0,280510,,*0F
$GPGGA,000445.000,5959.9677,N,03000.0000,E,1,4,0.0,3.9,M,16.1,M,,*6D
$GPGSV,1,1,4,09,73,251,42,27,70,179,42,17,51,077,42,12,34,252,42*48


$GPRMC,000445.000,A,5959.9677,N,03000.0000,E,047.1,180.0,280510,,*0F
$GPGGA,000445.000,5959.9677,N,03000.0000,E,1,4,0.0,3.9,M,16.1,M,,*6D
$GPGSV,1,1,4,09,73,251,42,27,70,179,42,17,51,077,42,12,34,252,42*48


$GPRMC,000445.000,A,5959.9677,N,03000.0000,E,047.1,180.0,280510,,*0F
$GPGGA,000445.000,5959.9677,N,03000.0000,E,1,4,0.0,3.9,M,16.1,M,,*6D
$GPGSV,1,1,4,09,73,251,42,27,70,179,42,17,51,077,42,12,34,252,42*48


$GPRMC,000445.000,A,5959.9677,N,03000.0000,E,047.1,180.0,280510,,*0F
$GPGGA,000445.000,5959.9677,N,03000.0000,E,1,4,0.0,3.9,M,16.1,M,,*6D
$GPGSV,1,1,4,09,73,251,42,27,70,179,42,17,51,077,42,12,34,252,42*48


$GPRMC,000445.000,A,5959.9677,N,03000.0000,E,047.1,180.0,280510,,*0F
$GPGGA,000445.000,5959.9677,N,03000.0000,E,1,4,0.0,3.9,M,16.1,M,,*6D
$GPGSV,1,1,4,09,73,251,42,27,70,179,42,17,51,077,42,12,34,252,42*48


$GPRMC,000445.000,A,5959.9677,N,03000.0000,E,047.1,180.0,280510,,*0F
$GPGGA,000445.000,5959.9677,N,03000.0000,E,1,4,0.0,3.9,M,16.1,M,,*6D
$GPGSV,1,1,4,09,73,251,42,27,70,179,42,17,51,077,42,12,34,252,42*48


$GPRMC,000445.000,A,5959.9677,N,03000.0000,E,047.1,180.0,280510,,*0F
$GPGGA,000445.000,5959.9677,N,03000.0000,E,1,4,0.0,3.9,M,16.1,M,,*6D
$GPGSV,1,1,4,09,73,251,42,27,70,179,42,17,51,077,42,12,34,252,42*48


$GPRMC,000445.000,A,5959.9677,N,03000.0000,E,047.1,180.0,280510,,*0F
$GPGGA,000445.000,5959.9677,N,03000.0000,E,1,4,0.0,3.9,M,16.1,M,,*6D
$GPGSV,1,1,4,09,73,251,42,27,70,179,42,17,51,077,42,12,34,252,42*48


$GPRMC,000445.000,A,5959.9677,N,03000.0000,E,047.1,180.0,280510,,*0F
$GPGGA,000445.000,5959.9677,N,03000.0000,E,1,4,0.0,3.9,M,16.1,M,,*6D
$GPGSV,1,1,4,09,73,251,42,27,70,179,42,17,51,077,42,12,34,252,42*48


$GPRMC,000445.000,A,5959.9677,N,03000.0000,E,047.1,180.0,280510,,*0F
$GPGGA,000445.000,5959.9677,N,03000.0000,E,1,4,0.0,3.9,M,16.1,M,,*6D
$GPGSV,1,1,4,09,73,251,42,27,70,179,42,17,51,077,42,12,34,252,42*48


$GPRMC,000445.000,A,5959.9677,N,03000.0000,E,047.1,180.0,280510,,*0F
$GPGGA,000445.000,5959.9677,N,03000.0000,E,1,4,0.0,3.9,M,16.1,M,,*6D
$GPGSV,1,1,4,09,73,251,42,27,70,179,42,17,51,077,42,12,34,252,42*48


$GPRMC,000445.000,A,5959.9677,N,03000.0000,E,047.1,180.0,280510,,*0F
$GPGGA,000445.000,5959.9677,N,03000.0000,E,1,4,0.0,3.9,M,16.1,M,,*6D
$GPGSV,1,1,4,09,73,251,42,27,70,179,42,17,51,077,42,12,34,252,42*48


$GPRMC,000445.000,A,5959.9677,N,03000.0000,E,047.1,180.0,280510,,*0F
