$GPRMC,000439.000,A,4733.1219,N,00216.7710,W,000.0,356.9,280510,,*14
$GPGGA,000439.000,4733.1219,N,00216.7710,W,1,3,0.0,51.3,M,48.7,M,,*43
$GPGSV,1,1,3,09,78,044,42,27,61,085,42,12,62,227,42*75


$GPRMC,000439.000,A,4733.1219,N,00216.7710,W,000.0,356.9,280510,,*14
$GPGGA,000439.000,4733.1219,N,00216.7710,W,1,3,0.0,51.3,M,48.7,M,,*43
$GPGSV,1,1,3,09,78,044,42,27,61,085,42,12,62,227,42*75


$GPRMC,000439.000,A,4733.1219,N,00216.7710,W,000.0,356.9,280510,,*14
$GPGGA,000439.000,4733.1219,N,00216.7710,W,1,3,0.0,51.3,M,48.7,M,,*43
$GPGSV,1,1,3,09,78,044,42,27,61,085,42,12,62,227,42*75


$GPRMC,000439.000,A,4733.1219,N,00216.7710,W,000.0,356.9,280510,,*14
$GPGGA,000439.000,4733.1219,N,00216.7710,W,1,3,0.0,51.3,M,48.7,M,,*43
$GPGSV,1,1,3,09,78,044,42,27,61,085,42,12,62,227,42*75


$GPRMC,000439.000,A,4733.1219,N,00216.7710,W,000.0,356.9,280510,,*14
$GPGGA,000439.000,4733.1219,N,00216.7710,W,1,3,0.0,51.3,M,48.7,M,,*43
$GPGSV,1,1,3,09,78,044,42,27,61,085,42,12,62,227,42*75


$GPRMC,000439.000,A,4733.1219,N,00216.7710,W,000.0,356.9,280510,,*14
$GPGGA,000439.000,4733.1219,N,00216.7710,W,1,3,0.0,51.3,M,48.7,M,,*43
$GPGSV,1,1,3,09,78,044,42,27,61,085,42,12,62,227,42*75


$GPRMC,000439.000,A,4733.1219,N,00216.7710,W,000.0,356.9,280510,,*14
$GPGGA,000439.000,4733.1219,N,00216.7710,W,1,3,0.0,51.3,M,48.7,M,,*43
$GPGSV,1,1,3,09,78,044,42,27,61,085,42,12,62,227,42*75


$GPRMC,000440.000,A,4733.1219,N,00216.7710,W,000.0,356.9,280510,,*1A
$GPGGA,000440.000,4733.1219,N,00216.7710,W,1,3,0.0,51.3,M,48.7,M,,*4D
$GPGSV,1,1,3,09,78,044,42,27,61,085,42,12,62,227,42*75


$GPRMC,000440.000,A,4733.1219,N,00216.7710,W,000.0,356.9,280510,,*1A
$GPGGA,000440.000,4733.1219,N,00216.7710,W,1,3,0.0,51.3,M,48.7,M,,*4D
$GPGSV,1,1,3,09,78,044,42,27,61,085,42,12,62,227,42*75


$GPRMC,000440.000,A,4733.1219,N,00216.7710,W,000.0,356.9,280510,,*1A
$GPGGA,000440.000,4733.1219,N,00216.7710,W,1,3,0.0,51.3,M,48.7,M,,*4D
$GPGSV,1,1,3,09,78,044,42,27,61,085,42,12,62,227,42*75


$GPRMC,000440.000,A,4733.1219,N,00216.7710,W,000.0,356.9,280510,,*1A
$GPGGA,000440.000,4733.1219,N,00216.7710,W,1,3,0.0,51.3,M,48.7,M,,*4D
$GPGSV,1,1,3,09,78,044,42,27,61,085,42,12,62,227,42*75


$GPRMC,000440.000,A,4733.1219,N,00216.7710,W,000.0,356.9,280510,,*1A
$GPGGA,000440.000,4733.1219,N,00216.7710,W,1,3,0.0,51.3,M,48.7,M,,*4D
$GPGSV,1,1,3,09,78,044,42,27,61,085,42,12,62,227,42*75


$GPRMC,000440.000,A,4733.1219,N,00216.7710,W,000.0,356.9,280510,,*1A
$GPGGA,000440.000,4733.1219,N,00216.7710,W,1,3,0.0,51.3,M,48.7,M,,*4D
$GPGSV,1,1,3,09,78,044,42,27,61,085,42,12,62,227,42*75


$GPRMC,000440.000,A,4733.1219,N,00216.7710,W,000.0,356.9,280510,,*1A
$GPGGA,000440.000,4733.1219,N,00216.7710,W,1,3,0.0,51.3,M,48.7,M,,*4D
$GPGSV,1,1,3,09,78,044,42,27,61,085,42,12,62,227,42*75


$GPRMC,000440.000,A,4733.1219,N,00216.7710,W,000.0,356.9,280510,,*1A
$GPGGA,000440.000,4733.1219,N,00216.7710,W,1,3,0.0,51.3,M,48.7,M,,*4D
$GPGSV,1,1,3,09,78,044,42,27,61,085,42,12,62,227,42*75


$GPRMC,000440.000,A,4733.1219,N,00216.7710,W,000.0,356.9,280510,,*1A
$GPGGA,000440.000,4733.1219,N,00216.7710,W,1,3,0.0,51.3,M,48.7,M,,*4D
$GPGSV,1,1,3,09,78,044,42,27,61,085,42,12,62,227,42*75


$GPRMC,000440.000,A,4733.1219,N,00216.7710,W,000.0,356.9,280510,,*1A
$GPGGA,000440.000,4733.1219,N,00216.7710,W,1,3,0.0,51.3,M,48.7,M,,*4D
$GPGSV,1,1,3,09,78,044,42,27,61,085,42,12,62,227,42*75


$GPRMC,000440.000,A,4733.1219,N,00216.7710,W,000.0,356.9,280510,,*1A
$GPGGA,000440.000,4733.1219,N,00216.7710,W,1,3,0.0,51.3,M,48.7,M,,*4D
$GPGSV,1,1,3,09,78,044,42,27,61,085,42,12,62,227,42*75


$GPRMC,000440.000,A,4733.1219,N,00216.7710,W,000.0,356.9,280510,,*1A
$GPGGA,000440.000,4733.1219,N,00216.7710,W,1,3,0.0,51.3,M,48.7,M,,*4D
$GPGSV,1,1,3,09,78,044,42,27,61,085,42,12,62,227,42*75


$GPRMC,000440.000,A,4733.1219,N,00216.7710,W,000.0,356.9,280510,,*1A
$GPGGA,000440.000,4733.1219,N,00216.7710,W,1,3,0.0,51.3,M,48.7,M,,*4D
$GPGSV,1,1,3,09,78,044,42,27,61,085,42,12,62,227,42*75


$GPRMC,000440.000,A,4733.1219,N,00216.7710,W,000.0,356.9,280510,,*1A
$GPGGA,000440.000,4733.1219,N,00216.7710,W,1,3,0.0,51.3,M,48.7,M,,*4D
$GPGSV,1,1,3,09,78,044,42,27,61,085,42,12,62,227,42*75


$GPRMC,000440.000,A,4733.1219,N,00216.7710,W,000.0,356.9,280510,,*1A
$GPGGA,000440.000,4733.1219,N,00216.7710,W,1,3,0.0,51.3,M,48.7,M,,*4D
$GPGSV,1,1,3,09,78,044,42,27,61,085,42,12,62,227,42*75


$GPRMC,000440.000,A,4733.1219,N,00216.7710,W,000.0,356.9,280510,,*1A
$GPGGA,000440.000,4733.1219,N,00216.7710,W,1,3,0.0,51.3,M,48.7,M,,*4D
$GPGSV,1,1,3,09,78,044,42,27,61,085,42,12,62,227,42*75


$GPRMC,000440.000,A,4733.1219,N,00216.7710,W,000.0,356.9,280510,,*1A
$GPGGA,000440.000,4733.1219,N,00216.7710,W,1,3,0.0,51.3,M,48.7,M,,*4D
$GPGSV,1,1,3,09,78,044,42,27,61,085,42,12,62,227,42*75


$GPRMC,000440.000,A,4733.1219,N,00216.7710,W,000.0,356.9,280510,,*1A
$GPGGA,000440.000,4733.1219,N,00216.7710,W,1,3,0.0,51.3,M,48.7,M,,*4D
$GPGSV,1,1,3,09,78,044,42,27,61,085,42,12,62,227,42*75


$GPRMC,000440.000,A,4733.1219,N,00216.7710,W,000.0,356.9,280510,,*1A
$GPGGA,000440.000,4733.1219,N,00216.7710,W,1,3,0.0,51.3,M,48.7,M,,*4D
$GPGSV,1,1,3,09,78,044,42,27,61,085,42,12,62,227,42*75


$GPRMC,000440.000,A,4733.1219,N,00216.7710,W,000.0,356.9,280510,,*1A
$GPGGA,000440.000,4733.1219,N,00216.7710,W,1,3,0.0,51.3,M,48.7,M,,*4D
$GPGSV,1,1,3,09,78,044,42,27,61,085,42,12,62,227,42*75


$GPRMC,000440.000,A,4733.1219,N,00216.7710,W,000.0,356.9,280510,,*1A
$GPGGA,000440.000,4733.1219,N,00216.7710,W,1,3,0.0,51.3,M,48.7,M,,*4D
$GPGSV,1,1,3,09,78,044,42,27,61,085,42,12,62,227,42*75


$GPRMC,000440.000,A,4733.1219,N,00216.7710,W,000.0,356.9,280510,,*1A
$GPGGA,000440.000,4733.1219,N,00216.7710,W,1,3,0.0,51.3,M,48.7,M,,*4D
$GPGSV,1,1,3,09,78,044,42,27,61,085,42,12,62,227,42*75


$GPRMC,000440.000,A,4733.1219,N,00216.7710,W,000.0,356.9,280510,,*1A
$GPGGA,000440.000,4733.1219,N,00216.7710,W,1,3,0.0,51.3,M,48.7,M,,*4D
$GPGSV,1,1,3,09,78,044,42,27,61,085,42,12,62,227,42*75


$GPRMC,000440.000,A,4733.1219,N,00216.7710,W,000.0,356.9,280510,,*1A
$GPGGA,000440.000,4733.1219,N,00216.7710,W,1,3,0.0,51.3,M,48.7,M,,*4D
$GPGSV,1,1,3,09,78,044,42,27,61,085,42,12,62,227,42*75


$GPRMC,000440.000,A,4733.1219,N,00216.7710,W,000.0,356.9,280510,,*1A
$GPGGA,000440.000,4733.1219,N,00216.7710,W,1,3,0.0,51.3,M,48.7,M,,*4D
$GPGSV,1,1,3,09,78,044,42,27,61,085,42,12,62,227,42*75


$GPRMC,000440.000,A,4733.1219,N,00216.7710,W,000.0,356.9,280510,,*1A
$GPGGA,000440.000,4733.1219,N,00216.7710,W,1,3,0.0,51.3,M,48.7,M,,*4D
$GPGSV,1,1,3,09,78,044,42,27,61,085,42,12,62,227,42*75


$GPRMC,000440.000,A,4733.1219,N,00216.7710,W,000.0,356.9,280510,,*1A
$GPGGA,000440.000,4733.1219,N,00216.7710,W,1,3,0.0,51.3,M,48.7,M,,*4D
$GPGSV,1,1,3,09,78,044,42,27,61,085,42,12,62,227,42*75


$GPRMC,000440.000,A,4733.1219,N,00216.7710,W,000.0,356.9,280510,,*1A
$GPGGA,000440.000,4733.1219,N,00216.7710,W,1,3,0.0,51.3,M,48.7,M,,*4D
$GPGSV,1,1,3,09,78,044,42,27,61,085,42,12,62,227,42*75


$GPRMC,000440.000,A,4733.1219,N,00216.7710,W,000.0,356.9,280510,,*1A
$GPGGA,000440.000,4733.1219,N,00216.7710,W,1,3,0.0,51.3,M,48.7,M,,*4D
$GPGSV,1,1,3,09,78,044,42,27,61,085,42,12,62,227,42*75


$GPRMC,000440.000,A,4733.1219,N,00216.7710,W,000.0,356.9,280510,,*1A
$GPGGA,000440.000,4733.1219,N,00216.7710,W,1,3,0.0,51.3,M,48.7,M,,*4D
$GPGSV,1,1,3,09,78,044,42,27,61,085,42,12,62,227,42*75


$GPRMC,000440.000,A,4733.1219,N,00216.7710,W,000.0,356.9,280510,,*1A
$GPGGA,000440.000,4733.1219,N,00216.7710,W,1,3,0.0,51.3,M,48.7,M,,*4D
$GPGSV,1,1,3,09,78,044,42,27,61,085,42,12,62,227,42*75


$GPRMC,000440.000,A,4733.1219,N,00216.7710,W,000.0,356.9,280510,,*1A
$GPGGA,000440.000,4733.1219,N,00216.7710,W,1,3,0.0,51.3,M,48.7,M,,*4D
$GPGSV,1,1,3,09,78,044,42,27,61,085,42,12,62,227,42*75


$GPRMC,000440.000,A,4733.1219,N,00216.7710,W,000.0,356.9,280510,,*1A
$GPGGA,000440.000,4733.1219,N,00216.7710,W,1,3,0.0,51.3,M,48.7,M,,*4D
$GPGSV,1,1,3,09,78,044,42,27,61,085,42,12,62,227,42*75


$GPRMC,000440.000,A,4733.1219,N,00216.7710,W,000.0,356.9,280510,,*1A
$GPGGA,000440.000,4733.1219,N,00216.7710,W,1,3,0.0,51.3,M,48.7,M,,*4D
$GPGSV,1,1,3,09,78,044,42,27,61,085,42,12,62,227,42*75


$GPRMC,000440.000,A,4733.1219,N,00216.7710,W,000.0,356.9,280510,,*1A
$GPGGA,000440.000,4733.1219,N,00216.7710,W,1,3,0.0,51.3,M,48.7,M,,*4D
$GPGSV,1,1,3,09,78,044,42,27,61,085,42,12,62,227,42*75


$GPRMC,000440.000,A,4733.1219,N,00216.7710,W,000.0,356.9,280510,,*1A
$GPGGA,000440.000,4733.1219,N,00216.7710,W,1,3,0.0,51.3,M,48.7,M,,*4D
$GPGSV,1,1,3,09,78,044,42,27,61,085,42,12,62,227,42*75


$GPRMC,000440.000,A,4733.1219,N,00216.7710,W,000.0,356.9,280510,,*1A
$GPGGA,000440.000,4733.1219,N,00216.7710,W,1,3,0.0,51.3,M,48.7,M,,*4D
$GPGSV,1,1,3,09,78,044,42,27,61,085,42,12,62,227,42*75


$GPRMC,000440.000,A,4733.1219,N,00216.7710,W,000.0,356.9,280510,,*1A
$GPGGA,000440.000,4733.1219,N,00216.7710,W,1,3,0.0,51.3,M,48.7,M,,*4D
$GPGSV,1,1,3,09,78,044,42,27,61,085,42,12,62,227,42*75


$GPRMC,000440.000,A,4733.1219,N,00216.7710,W,000.0,356.9,280510,,*1A
$GPGGA,000440.000,4733.1219,N,00216.7710,W,1,3,0.0,51.3,M,48.7,M,,*4D
$GPGSV,1,1,3,09,78,044,42,27,61,085,42,12,62,227,42*75


$GPRMC,000440.000,A,4733.1219,N,00216.7710,W,000.0,356.9,280510,,*1A
$GPGGA,000440.000,4733.1219,N,00216.7710,W,1,3,0.0,51.3,M,48.7,M,,*4D
$GPGSV,1,1,3,09,78,044,42,27,61,085,42,12,62,227,42*75


$GPRMC,000440.000,A,4733.1219,N,00216.7710,W,000.0,356.9,280510,,*1A
$GPGGA,000440.000,4733.1219,N,00216.7710,W,1,3,0.0,51.3,M,48.7,M,,*4D
$GPGSV,1,1,3,09,78,044,42,27,61,085,42,12,62,227,42*75


$GPRMC,000440.000,A,4733.1219,N,00216.7710,W,000.0,356.9,280510,,*1A
$GPGGA,000440.000,4733.1219,N,00216.7710,W,1,3,0.0,51.3,M,48.7,M,,*4D
$GPGSV,1,1,3,09,78,044,42,27,61,085,42,12,62,227,42*75


$GPRMC,000440.000,A,4733.1219,N,00216.7710,W,000.0,356.9,280510,,*1A
$GPGGA,000440.000,4733.1219,N,00216.7710,W,1,3,0.0,51.3,M,48.7,M,,*4D
$GPGSV,1,1,3,09,78,044,42,27,61,085,42,12,62,227,42*75


$GPRMC,000440.000,A,4733.1219,N,00216.7710,W,000.0,356.9,280510,,*1A
$GPGGA,000440.000,4733.1219,N,00216.7710,W,1,3,0.0,51.3,M,48.7,M,,*4D
$GPGSV,1,1,3,09,78,044,42,27,61,085,42,12,62,227,42*75


$GPRMC,000440.000,A,4733.1219,N,00216.7710,W,000.0,356.9,280510,,*1A
$GPGGA,000440.000,4733.1219,N,00216.7710,W,1,3,0.0,51.3,M,48.7,M,,*4D
$GPGSV,1,1,3,09,78,044,42,27,61,085,42,12,62,227,42*75


$GPRMC,000440.000,A,4733.1219,N,00216.7710,W,000.0,356.9,280510,,*1A
$GPGGA,000440.000,4733.1219,N,00216.7710,W,1,3,0.0,51.3,M,48.7,M,,*4D
$GPGSV,1,1,3,09,78,044,42,27,61,085,42,12,62,227,42*75


$GPRMC,000440.000,A,4733.1219,N,00216.7710,W,000.0,356.9,280510,,*1A
$GPGGA,000440.000,4733.1219,N,00216.7710,W,1,3,0.0,51.3,M,48.7,M,,*4D
$GPGSV,1,1,3,09,78,044,42,27,61,085,42,12,62,227,42*75


$GPRMC,000440.000,A,4733.1219,N,00216.7710,W,000.0,356.9,280510,,*1A
$GPGGA,000440.000,4733.1219,N,00216.7710,W,1,3,0.0,51.3,M,48.7,M,,*4D
$GPGSV,1,1,3,09,78,044,42,27,61,085,42,12,62,227,42*75


$GPRMC,000440.000,A,4733.1219,N,00216.7710,W,000.0,356.9,280510,,*1A
$GPGGA,000440.000,4733.1219,N,00216.7710,W,1,3,0.0,51.3,M,48.7,M,,*4D
$GPGSV,1,1,3,09,78,044,42,27,61,085,42,12,62,227,42*75


$GPRMC,000440.000,A,4733.1219,N,00216.7710,W,000.0,356.9,280510,,*1A
$GPGGA,000440.000,4733.1219,N,00216.7710,W,1,3,0.0,51.3,M,48.7,M,,*4D
$GPGSV,1,1,3,09,78,044,42,27,61,085,42,12,62,227,42*75


$GPRMC,000440.000,A,4733.1219,N,00216.7710,W,000.0,356.9,280510,,*1A
$GPGGA,000440.000,4733.1219,N,00216.7710,W,1,3,0.0,51.3,M,48.7,M,,*4D
$GPGSV,1,1,3,09,78,044,42,27,61,085,42,12,62,227,42*75


$GPRMC,000440.000,A,4733.1219,N,00216.7710,W,000.0,356.9,280510,,*1A
$GPGGA,000440.000,4733.1219,N,00216.7710,W,1,3,0.0,51.3,M,48.7,M,,*4D
$GPGSV,1,1,3,09,78,044,42,27,61,085,42,12,62,227,42*75


$GPRMC,000441.000,A,4733.1267,N,00216.7709,W,019.4,002.6,280510,,*1B
$GPGGA,000441.000,4733.1267,N,00216.7709,W,1,3,0.0,51.3,M,48.7,M,,*4D
$GPGSV,1,1,3,09,78,044,42,27,61,085,42,12,62,227,42*75


$GPRMC,000441.000,A,4733.1267,N,00216.7709,W,019.4,002.6,280510,,*1B
$GPGGA,000441.000,4733.1267,N,00216.7709,W,1,3,0.0,51.3,M,48.7,M,,*4D
$GPGSV,1,1,3,09,78,044,42,27,61,085,42,12,62,227,42*75


$GPRMC,000441.000,A,4733.1267,N,00216.7709,W,019.4,002.6,280510,,*1B
$GPGGA,000441.000,4733.1267,N,00216.7709,W,1,3,0.0,51.3,M,48.7,M,,*4D
$GPGSV,1,1,3,09,78,044,42,27,61,085,42,12,62,227,42*75


$GPRMC,000441.000,A,4733.1267,N,00216.7709,W,019.4,002.6,280510,,*1B
$GPGGA,000441.000,4733.1267,N,00216.7709,W,1,3,0.0,51.3,M,48.7,M,,*4D
$GPGSV,1,1,3,09,78,044,42,27,61,085,42,12,62,227,42*75


$GPRMC,000441.000,A,4733.1267,N,00216.7709,W,019.4,002.6,280510,,*1B
$GPGGA,000441.000,4733.1267,N,00216.7709,W,1,3,0.0,51.3,M,48.7,M,,*4D
$GPGSV,1,1,3,09,78,044,42,27,61,085,42,12,62,227,42*75


$GPRMC,000441.000,A,4733.1267,N,00216.7709,W,019.4,002.6,280510,,*1B
$GPGGA,000441.000,4733.1267,N,00216.7709,W,1,3,0.0,51.3,M,48.7,M,,*4D
$GPGSV,1,1,3,09,78,044,42,27,61,085,42,12,62,227,42*75


$GPRMC,000441.000,A,4733.1267,N,00216.7709,W,019.4,002.6,280510,,*1B
$GPGGA,000441.000,4733.1267,N,00216.7709,W,1,3,0.0,51.3,M,48.7,M,,*4D
$GPGSV,1,1,3,09,78,044,42,27,61,085,42,12,62,227,42*75


$GPRMC,000441.000,A,4733.1267,N,00216.7709,W,019.4,002.6,280510,,*1B
$GPGGA,000441.000,4733.1267,N,00216.7709,W,1,3,0.0,51.3,M,48.7,M,,*4D
$GPGSV,1,1,3,09,78,044,42,27,61,085,42,12,62,227,42*75


$GPRMC,000441.000,A,4733.1267,N,00216.7709,W,019.4,002.6,280510,,*1B
$GPGGA,000441.000,4733.1267,N,00216.7709,W,1,3,0.0,51.3,M,48.7,M,,*4D
$GPGSV,1,1,3,09,78,044,42,27,61,085,42,12,62,227,42*75


$GPRMC,000441.000,A,4733.1267,N,00216.7709,W,019.4,002.6,280510,,*1B
$GPGGA,000441.000,4733.1267,N,00216.7709,W,1,3,0.0,51.3,M,48.7,M,,*4D
$GPGSV,1,1,3,09,78,044,42,27,61,085,42,12,62,227,42*75


$GPRMC,000441.000,A,4733.1267,N,00216.7709,W,019.4,002.6,280510,,*1B
$GPGGA,000441.000,4733.1267,N,00216.7709,W,1,3,0.0,51.3,M,48.7,M,,*4D
$GPGSV,1,1,3,09,78,044,42,27,61,085,42,12,62,227,42*75


$GPRMC,000441.000,A,4733.1267,N,00216.7709,W,019.4,002.6,280510,,*1B
$GPGGA,000441.000,4733.1267,N,00216.7709,W,1,3,0.0,51.3,M,48.7,M,,*4D
$GPGSV,1,1,3,09,78,044,42,27,61,085,42,12,62,227,42*75


$GPRMC,000441.000,A,4733.1267,N,00216.7709,W,019.4,002.6,280510,,*1B
$GPGGA,000441.000,4733.1267,N,00216.7709,W,1,3,0.0,51.3,M,48.7,M,,*4D
$GPGSV,1,1,3,09,78,044,42,27,61,085,42,12,62,227,42*75


$GPRMC,000441.000,A,4733.1267,N,00216.7709,W,019.4,002.6,280510,,*1B
$GPGGA,000441.000,4733.1267,N,00216.7709,W,1,3,0.0,51.3,M,48.7,M,,*4D
$GPGSV,1,1,3,09,78,044,42,27,61,085,42,12,62,227,42*75


$GPRMC,000441.000,A,4733.1267,N,00216.7709,W,019.4,002.6,280510,,*1B
$GPGGA,000441.000,4733.1267,N,00216.7709,W,1,3,0.0,51.3,M,48.7,M,,*4D
$GPGSV,1,1,3,09,78,044,42,27,61,085,42,12,62,227,42*75


$GPRMC,000441.000,A,4733.1267,N,00216.7709,W,019.4,002.6,280510,,*1B
$GPGGA,000441.000,4733.1267,N,00216.7709,W,1,3,0.0,51.3,M,48.7,M,,*4D
$GPGSV,1,1,3,09,78,044,42,27,61,085,42,12,62,227,42*75


$GPRMC,000441.000,A,4733.1267,N,00216.7709,W,019.4,002.6,280510,,*1B
$GPGGA,000441.000,4733.1267,N,00216.7709,W,1,3,0.0,51.3,M,48.7,M,,*4D
$GPGSV,1,1,3,09,78,044,42,27,61,085,42,12,62,227,42*75


$GPRMC,000441.000,A,4733.1267,N,00216.7709,W,019.4,002.6,280510,,*1B
$GPGGA,000441.000,4733.1267,N,00216.7709,W,1,3,0.0,51.3,M,48.7,M,,*4D
$GPGSV,1,1,3,09,78,044,42,27,61,085,42,12,62,227,42*75


$GPRMC,000441.000,A,4733.1267,N,00216.7709,W,019.4,002.6,280510,,*1B
$GPGGA,000441.000,4733.1267,N,00216.7709,W,1,3,0.0,51.3,M,48.7,M,,*4D
$GPGSV,1,1,3,09,78,044,42,27,61,085,42,12,62,227,42*75


$GPRMC,000441.000,A,4733.1267,N,00216.7709,W,019.4,002.6,280510,,*1B
$GPGGA,000441.000,4733.1267,N,00216.7709,W,1,3,0.0,51.3,M,48.7,M,,*4D
$GPGSV,1,1,3,09,78,044,42,27,61,085,42,12,62,227,42*75


$GPRMC,000441.000,A,4733.1267,N,00216.7709,W,019.4,002.6,280510,,*1B
$GPGGA,000441.000,4733.1267,N,00216.7709,W,1,3,0.0,51.3,M,48.7,M,,*4D
$GPGSV,1,1,3,09,78,044,42,27,61,085,42,12,62,227,42*75


$GPRMC,000441.000,A,4733.1267,N,00216.7709,W,019.4,002.6,280510,,*1B
$GPGGA,000441.000,4733.1267,N,00216.7709,W,1,3,0.0,51.3,M,48.7,M,,*4D
$GPGSV,1,1,3,09,78,044,42,27,61,085,42,12,62,227,42*75


$GPRMC,000441.000,A,4733.1267,N,00216.7709,W,019.4,002.6,280510,,*1B
$GPGGA,000441.000,4733.1267,N,00216.7709,W,1,3,0.0,51.3,M,48.7,M,,*4D
$GPGSV,1,1,3,09,78,044,42,27,61,085,42,12,62,227,42*75


$GPRMC,000441.000,A,4733.1267,N,00216.7709,W,019.4,002.6,280510,,*1B
$GPGGA,000441.000,4733.1267,N,00216.7709,W,1,3,0.0,51.3,M,48.7,M,,*4D
$GPGSV,1,1,3,09,78,044,42,27,61,085,42,12,62,227,42*75


$GPRMC,000441.000,A,4733.1267,N,00216.7709,W,019.4,002.6,280510,,*1B
$GPGGA,000441.000,4733.1267,N,00216.7709,W,1,3,0.0,51.3,M,48.7,M,,*4D
$GPGSV,1,1,3,09,78,044,42,27,61,085,42,12,62,227,42*75


$GPRMC,000441.000,A,4733.1267,N,00216.7709,W,019.4,002.6,280510,,*1B
$GPGGA,000441.000,4733.1267,N,00216.7709,W,1,3,0.0,51.3,M,48.7,M,,*4D
$GPGSV,1,1,3,09,78,044,42,27,61,085,42,12,62,227,42*75


$GPRMC,000441.000,A,4733.1267,N,00216.7709,W,019.4,002.6,280510,,*1B
$GPGGA,000441.000,4733.1267,N,00216.7709,W,1,3,0.0,51.3,M,48.7,M,,*4D
$GPGSV,1,1,3,09,78,044,42,27,61,085,42,12,62,227,42*75


$GPRMC,000441.000,A,4733.1267,N,00216.7709,W,019.4,002.6,280510,,*1B
$GPGGA,000441.000,4733.1267,N,00216.7709,W,1,3,0.0,51.3,M,48.7,M,,*4D
$GPGSV,1,1,3,09,78,044,42,27,61,085,42,12,62,227,42*75


$GPRMC,000441.000,A,4733.1267,N,00216.7709,W,019.4,002.6,280510,,*1B
$GPGGA,000441.000,4733.1267,N,00216.7709,W,1,3,0.0,51.3,M,48.7,M,,*4D
$GPGSV,1,1,3,09,78,044,42,27,61,085,42,12,62,227,42*75


$GPRMC,000441.000,A,4733.1267,N,00216.7709,W,019.4,002.6,280510,,*1B
$GPGGA,000441.000,4733.1267,N,00216.7709,W,1,3,0.0,51.3,M,48.7,M,,*4D
$GPGSV,1,1,3,09,78,044,42,27,61,085,42,12,62,227,42*75


$GPRMC,000441.000,A,4733.1267,N,00216.7709,W,019.4,002.6,280510,,*1B
$GPGGA,000441.000,4733.1267,N,00216.7709,W,1,3,0.0,51.3,M,48.7,M,,*4D
$GPGSV,1,1,3,09,78,044,42,27,61,085,42,12,62,227,42*75


$GPRMC,000441.000,A,4733.1267,N,00216.7709,W,019.4,002.6,280510,,*1B
$GPGGA,000441.000,4733.1267,N,00216.7709,W,1,3,0.0,51.3,M,48.7,M,,*4D
$GPGSV,1,1,3,09,78,044,42,27,61,085,42,12,62,227,42*75


$GPRMC,000441.000,A,4733.1267,N,00216.7709,W,019.4,002.6,280510,,*1B
$GPGGA,000441.000,4733.1267,N,00216.7709,W,1,3,0.0,51.3,M,48.7,M,,*4D
$GPGSV,1,1,3,09,78,044,42,27,61,085,42,12,62,227,42*75


$GPRMC,000441.000,A,4733.1267,N,00216.7709,W,019.4,002.6,280510,,*1B
$GPGGA,000441.000,4733.1267,N,00216.7709,W,1,3,0.0,51.3,M,48.7,M,,*4D
$GPGSV,1,1,3,09,78,044,42,27,61,085,42,12,62,227,42*75


$GPRMC,000441.000,A,4733.1267,N,00216.7709,W,019.4,002.6,280510,,*1B
$GPGGA,000441.000,4733.1267,N,00216.7709,W,1,3,0.0,51.3,M,48.7,M,,*4D
$GPGSV,1,1,3,09,78,044,42,27,61,085,42,12,62,227,42*75


$GPRMC,000441.000,A,4733.1267,N,00216.7709,W,019.4,002.6,280510,,*1B
$GPGGA,000441.000,4733.1267,N,00216.7709,W,1,3,0.0,51.3,M,48.7,M,,*4D
$GPGSV,1,1,3,09,78,044,42,27,61,085,42,12,62,227,42*75


$GPRMC,000441.000,A,4733.1267,N,00216.7709,W,019.4,002.6,280510,,*1B
$GPGGA,000441.000,4733.1267,N,00216.7709,W,1,3,0.0,51.3,M,48.7,M,,*4D
$GPGSV,1,1,3,09,78,044,42,27,61,085,42,12,62,227,42*75


$GPRMC,000441.000,A,4733.1267,N,00216.7709,W,019.4,002.6,280510,,*1B
$GPGGA,000441.000,4733.1267,N,00216.7709,W,1,3,0.0,51.3,M,48.7,M,,*4D
$GPGSV,1,1,3,09,78,044,42,27,61,085,42,12,62,227,42*75


$GPRMC,000441.000,A,4733.1267,N,00216.7709,W,019.4,002.6,280510,,*1B
$GPGGA,000441.000,4733.1267,N,00216.7709,W,1,3,0.0,51.3,M,48.7,M,,*4D
$GPGSV,1,1,3,09,78,044,42,27,61,085,42,12,62,227,42*75


$GPRMC,000441.000,A,4733.1267,N,00216.7709,W,019.4,002.6,280510,,*1B
$GPGGA,000441.000,4733.1267,N,00216.7709,W,1,3,0.0,51.3,M,48.7,M,,*4D
$GPGSV,1,1,3,09,78,044,42,27,61,085,42,12,62,227,42*75


$GPRMC,000441.000,A,4733.1267,N,00216.7709,W,019.4,002.6,280510,,*1B
$GPGGA,000441.000,4733.1267,N,00216.7709,W,1,3,0.0,51.3,M,48.7,M,,*4D
$GPGSV,1,1,3,09,78,044,42,27,61,085,42,12,62,227,42*75


$GPRMC,000441.000,A,4733.1267,N,00216.7709,W,019.4,002.6,280510,,*1B
$GPGGA,000441.000,4733.1267,N,00216.7709,W,1,3,0.0,51.3,M,48.7,M,,*4D
$GPGSV,1,1,3,09,78,044,42,27,61,085,42,12,62,227,42*75


$GPRMC,000441.000,A,4733.1267,N,00216.7709,W,019.4,002.6,280510,,*1B
$GPGGA,000441.000,4733.1267,N,00216.7709,W,1,3,0.0,51.3,M,48.7,M,,*4D
$GPGSV,1,1,3,09,78,044,42,27,61,085,42,12,62,227,42*75


$GPRMC,000441.000,A,4733.1267,N,00216.7709,W,019.4,002.6,280510,,*1B
$GPGGA,000441.000,4733.1267,N,00216.7709,W,1,3,0.0,51.3,M,48.7,M,,*4D
$GPGSV,1,1,3,09,78,044,42,27,61,085,42,12,62,227,42*75


$GPRMC,000441.000,A,4733.1267,N,00216.7709,W,019.4,002.6,280510,,*1B
$GPGGA,000441.000,4733.1267,N,00216.7709,W,1,3,0.0,51.3,M,48.7,M,,*4D
$GPGSV,1,1,3,09,78,044,42,27,61,085,42,12,62,227,42*75


$GPRMC,000441.000,A,4733.1267,N,00216.7709,W,019.4,002.6,280510,,*1B
$GPGGA,000441.000,4733.1267,N,00216.7709,W,1,3,0.0,51.3,M,48.7,M,,*4D
$GPGSV,1,1,3,09,78,044,42,27,61,085,42,12,62,227,42*75


$GPRMC,000441.000,A,4733.1267,N,00216.7709,W,019.4,002.6,280510,,*1B
$GPGGA,000441.000,4733.1267,N,00216.7709,W,1,3,0.0,51.3,M,48.7,M,,*4D
$GPGSV,1,1,3,09,78,044,42,27,61,085,42,12,62,227,42*75


$GPRMC,000441.000,A,4733.1267,N,00216.7709,W,019.4,002.6,280510,,*1B
$GPGGA,000441.000,4733.1267,N,00216.7709,W,1,3,0.0,51.3,M,48.7,M,,*4D
$GPGSV,1,1,3,09,78,044,42,27,61,085,42,12,62,227,42*75


$GPRMC,000441.000,A,4733.1267,N,00216.7709,W,019.4,002.6,280510,,*1B
$GPGGA,000441.000,4733.1267,N,00216.7709,W,1,3,0.0,51.3,M,48.7,M,,*4D
$GPGSV,1,1,3,09,78,044,42,27,61,085,42,12,62,227,42*75


$GPRMC,000441.000,A,4733.1267,N,00216.7709,W,019.4,002.6,280510,,*1B
$GPGGA,000441.000,4733.1267,N,00216.7709,W,1,3,0.0,51.3,M,48.7,M,,*4D
$GPGSV,1,1,3,09,78,044,42,27,61,085,42,12,62,227,42*75


$GPRMC,000442.000,A,4733.1321,N,00216.7703,W,019.4,005.6,280510,,*16
$GPGGA,000442.000,4733.1321,N,00216.7703,W,1,3,0.0,51.3,M,48.7,M,,*47
$GPGSV,1,1,3,09,78,044,42,27,61,085,42,12,62,227,42*75


$GPRMC,000442.000,A,4733.1321,N,00216.7703,W,019.4,005.6,280510,,*16
$GPGGA,000442.000,4733.1321,N,00216.7703,W,1,3,0.0,51.3,M,48.7,M,,*47
$GPGSV,1,1,3,09,78,044,42,27,61,085,42,12,62,227,42*75


$GPRMC,000442.000,A,4733.1321,N,00216.7703,W,019.4,005.6,280510,,*16
$GPGGA,000442.000,4733.1321,N,00216.7703,W,1,3,0.0,51.3,M,48.7,M,,*47
$GPGSV,1,1,3,09,78,044,42,27,61,085,42,12,62,227,42*75


$GPRMC,000442.000,A,4733.1321,N,00216.7703,W,019.4,005.6,280510,,*16
$GPGGA,000442.000,4733.1321,N,00216.7703,W,1,3,0.0,51.3,M,48.7,M,,*47
$GPGSV,1,1,3,09,78,044,42,27,61,085,42,12,62,227,42*75


$GPRMC,000442.000,A,4733.1321,N,00216.7703,W,019.4,005.6,280510,,*16
$GPGGA,000442.000,4733.1321,N,00216.7703,W,1,3,0.0,51.3,M,48.7,M,,*47
$GPGSV,1,1,3,09,78,044,42,27,61,085,42,12,62,227,42*75


$GPRMC,000442.000,A,4733.1321,N,00216.7703,W,019.4,005.6,280510,,*16
$GPGGA,000442.000,4733.1321,N,00216.7703,W,1,3,0.0,51.3,M,48.7,M,,*47
$GPGSV,1,1,3,09,78,044,42,27,61,085,42,12,62,227,42*75


$GPRMC,000442.000,A,4733.1321,N,00216.7703,W,019.4,005.6,280510,,*16
$GPGGA,000442.000,4733.1321,N,00216.7703,W,1,3,0.0,51.3,M,48.7,M,,*47
$GPGSV,1,1,3,09,78,044,42,27,61,085,42,12,62,227,42*75


$GPRMC,000442.000,A,4733.1321,N,00216.7703,W,019.4,005.6,280510,,*16
$GPGGA,000442.000,4733.1321,N,00216.7703,W,1,3,0.0,51.3,M,48.7,M,,*47
$GPGSV,1,1,3,09,78,044,42,27,61,085,42,12,62,227,42*75


$GPRMC,000442.000,A,4733.1321,N,00216.7703,W,019.4,005.6,280510,,*16
$GPGGA,000442.000,4733.1321,N,00216.7703,W,1,3,0.0,51.3,M,48.7,M,,*47
$GPGSV,1,1,3,09,78,044,42,27,61,085,42,12,62,227,42*75


$GPRMC,000442.000,A,4733.1321,N,00216.7703,W,019.4,005.6,280510,,*16
$GPGGA,000442.000,4733.1321,N,00216.7703,W,1,3,0.0,51.3,M,48.7,M,,*47
$GPGSV,1,1,3,09,78,044,42,27,61,085,42,12,62,227,42*75


$GPRMC,000442.000,A,4733.1321,N,00216.7703,W,019.4,005.6,280510,,*16
$GPGGA,000442.000,4733.1321,N,00216.7703,W,1,3,0.0,51.3,M,48.7,M,,*47
$GPGSV,1,1,3,09,78,044,42,27,61,085,42,12,62,227,42*75


$GPRMC,000442.000,A,4733.1321,N,00216.7703,W,019.4,005.6,280510,,*16
$GPGGA,000442.000,4733.1321,N,00216.7703,W,1,3,0.0,51.3,M,48.7,M,,*47
$GPGSV,1,1,3,09,78,044,42,27,61,085,42,12,62,227,42*75


$GPRMC,000442.000,A,4733.1321,N,00216.7703,W,019.4,005.6,280510,,*16
$GPGGA,000442.000,4733.1321,N,00216.7703,W,1,3,0.0,51.3,M,48.7,M,,*47
$GPGSV,1,1,3,09,78,044,42,27,61,085,42,12,62,227,42*75


$GPRMC,000442.000,A,4733.1321,N,00216.7703,W,019.4,005.6,280510,,*16
$GPGGA,000442.000,4733.1321,N,00216.7703,W,1,3,0.0,51.3,M,48.7,M,,*47
$GPGSV,1,1,3,09,78,044,42,27,61,085,42,12,62,227,42*75


$GPRMC,000442.000,A,4733.1321,N,00216.7703,W,019.4,005.6,280510,,*16
$GPGGA,000442.000,4733.1321,N,00216.7703,W,1,3,0.0,51.3,M,48.7,M,,*47
$GPGSV,1,1,3,09,78,044,42,27,61,085,42,12,62,227,42*75


$GPRMC,000442.000,A,4733.1321,N,00216.7703,W,019.4,005.6,280510,,*16
$GPGGA,000442.000,4733.1321,N,00216.7703,W,1,3,0.0,51.3,M,48.7,M,,*47
$GPGSV,1,1,3,09,78,044,42,27,61,085,42,12,62,227,42*75


$GPRMC,000442.000,A,4733.1321,N,00216.7703,W,019.4,005.6,280510,,*16
$GPGGA,000442.000,4733.1321,N,00216.7703,W,1,3,0.0,51.3,M,48.7,M,,*47
$GPGSV,1,1,3,09,78,044,42,27,61,085,42,12,62,227,42*75


$GPRMC,000442.000,A,4733.1321,N,00216.7703,W,019.4,005.6,280510,,*16
$GPGGA,000442.000,4733.1321,N,00216.7703,W,1,3,0.0,51.3,M,48.7,M,,*47
$GPGSV,1,1,3,09,78,044,42,27,61,085,42,12,62,227,42*75


$GPRMC,000442.000,A,4733.1321,N,00216.7703,W,019.4,005.6,280510,,*16
$GPGGA,000442.000,4733.1321,N,00216.7703,W,1,3,0.0,51.3,M,48.7,M,,*47
$GPGSV,1,1,3,09,78,044,42,27,61,085,42,12,62,227,42*75


$GPRMC,000442.000,A,4733.1321,N,00216.7703,W,019.4,005.6,280510,,*16
$GPGGA,000442.000,4733.1321,N,00216.7703,W,1,3,0.0,51.3,M,48.7,M,,*47
$GPGSV,1,1,3,09,78,044,42,27,61,085,42,12,62,227,42*75


$GPRMC,000442.000,A,4733.1321,N,00216.7703,W,019.4,005.6,280510,,*16
$GPGGA,000442.000,4733.1321,N,00216.7703,W,1,3,0.0,51.3,M,48.7,M,,*47
$GPGSV,1,1,3,09,78,044,42,27,61,085,42,12,62,227,42*75


$GPRMC,000442.000,A,4733.1321,N,00216.7703,W,019.4,005.6,280510,,*16
$GPGGA,000442.000,4733.1321,N,00216.7703,W,1,3,0.0,51.3,M,48.7,M,,*47
$GPGSV,1,1,3,09,78,044,42,27,61,085,42,12,62,227,42*75


$GPRMC,000442.000,A,4733.1321,N,00216.7703,W,019.4,005.6,280510,,*16
$GPGGA,000442.000,4733.1321,N,00216.7703,W,1,3,0.0,51.3,M,48.7,M,,*47
$GPGSV,1,1,3,09,78,044,42,27,61,085,42,12,62,227,42*75


$GPRMC,000442.000,A,4733.1321,N,00216.7703,W,019.4,005.6,280510,,*16
$GPGGA,000442.000,4733.1321,N,00216.7703,W,1,3,0.0,51.3,M,48.7,M,,*47
$GPGSV,1,1,3,09,78,044,42,27,61,085,42,12,62,227,42*75


$GPRMC,000442.000,A,4733.1321,N,00216.7703,W,019.4,005.6,280510,,*16
$GPGGA,000442.000,4733.1321,N,00216.7703,W,1,3,0.0,51.3,M,48.7,M,,*47
$GPGSV,1,1,3,09,78,044,42,27,61,085,42,12,62,227,42*75


$GPRMC,000442.000,A,4733.1321,N,00216.7703,W,019.4,005.6,280510,,*16
$GPGGA,000442.000,4733.1321,N,00216.7703,W,1,3,0.0,51.3,M,48.7,M,,*47
$GPGSV,1,1,3,09,78,044,42,27,61,085,42,12,62,227,42*75


$GPRMC,000442.000,A,4733.1321,N,00216.7703,W,019.4,005.6,280510,,*16
$GPGGA,000442.000,4733.1321,N,00216.7703,W,1,3,0.0,51.3,M,48.7,M,,*47
$GPGSV,1,1,3,09,78,044,42,27,61,085,42,12,62,227,42*75


$GPRMC,000442.000,A,4733.1321,N,00216.7703,W,019.4,005.6,280510,,*16
$GPGGA,000442.000,4733.1321,N,00216.7703,W,1,3,0.0,51.3,M,48.7,M,,*47
$GPGSV,1,1,3,09,78,044,42,27,61,085,42,12,62,227,42*75


$GPRMC,000442.000,A,4733.1321,N,00216.7703,W,019.4,005.6,280510,,*16
$GPGGA,000442.000,4733.1321,N,00216.7703,W,1,3,0.0,51.3,M,48.7,M,,*47
$GPGSV,1,1,3,09,78,044,42,27,61,085,42,12,62,227,42*75


$GPRMC,000442.000,A,4733.1321,N,00216.7703,W,019.4,005.6,280510,,*16
$GPGGA,000442.000,4733.1321,N,00216.7703,W,1,3,0.0,51.3,M,48.7,M,,*47
$GPGSV,1,1,3,09,78,044,42,27,61,085,42,12,62,227,42*75


$GPRMC,000442.000,A,4733.1321,N,00216.7703,W,019.4,005.6,280510,,*16
$GPGGA,000442.000,4733.1321,N,00216.7703,W,1,3,0.0,51.3,M,48.7,M,,*47
$GPGSV,1,1,3,09,78,044,42,27,61,085,42,12,62,227,42*75


$GPRMC,000442.000,A,4733.1321,N,00216.7703,W,019.4,005.6,280510,,*16
$GPGGA,000442.000,4733.1321,N,00216.7703,W,1,3,0.0,51.3,M,48.7,M,,*47
$GPGSV,1,1,3,09,78,044,42,27,61,085,42,12,62,227,42*75


$GPRMC,000442.000,A,4733.1321,N,00216.7703,W,019.4,005.6,280510,,*16
$GPGGA,000442.000,4733.1321,N,00216.7703,W,1,3,0.0,51.3,M,48.7,M,,*47
$GPGSV,1,1,3,09,78,044,42,27,61,085,42,12,62,227,42*75


$GPRMC,000442.000,A,4733.1321,N,00216.7703,W,019.4,005.6,280510,,*16
$GPGGA,000442.000,4733.1321,N,00216.7703,W,1,3,0.0,51.3,M,48.7,M,,*47
$GPGSV,1,1,3,09,78,044,42,27,61,085,42,12,62,227,42*75


$GPRMC,000442.000,A,4733.1321,N,00216.7703,W,019.4,005.6,280510,,*16
$GPGGA,000442.000,4733.1321,N,00216.7703,W,1,3,0.0,51.3,M,48.7,M,,*47
$GPGSV,1,1,3,09,78,044,42,27,61,085,42,12,62,227,42*75


$GPRMC,000442.000,A,4733.1321,N,00216.7703,W,019.4,005.6,280510,,*16
$GPGGA,000442.000,4733.1321,N,00216.7703,W,1,3,0.0,51.3,M,48.7,M,,*47
$GPGSV,1,1,3,09,78,044,42,27,61,085,42,12,62,227,42*75


$GPRMC,000442.000,A,4733.1321,N,00216.7703,W,019.4,005.6,280510,,*16
$GPGGA,000442.000,4733.1321,N,00216.7703,W,1,3,0.0,51.3,M,48.7,M,,*47
$GPGSV,1,1,3,09,78,044,42,27,61,085,42,12,62,227,42*75


$GPRMC,000442.000,A,4733.1321,N,00216.7703,W,019.4,005.6,280510,,*16
$GPGGA,000442.000,4733.1321,N,00216.7703,W,1,3,0.0,51.3,M,48.7,M,,*47
$GPGSV,1,1,3,09,78,044,42,27,61,085,42,12,62,227,42*75


$GPRMC,000442.000,A,4733.1321,N,00216.7703,W,019.4,005.6,280510,,*16
$GPGGA,000442.000,4733.1321,N,00216.7703,W,1,3,0.0,51.3,M,48.7,M,,*47
$GPGSV,1,1,3,09,78,044,42,27,61,085,42,12,62,227,42*75


$GPRMC,000442.000,A,4733.1321,N,00216.7703,W,019.4,005.6,280510,,*16
$GPGGA,000442.000,4733.1321,N,00216.7703,W,1,3,0.0,51.3,M,48.7,M,,*47
$GPGSV,1,1,3,09,78,044,42,27,61,085,42,12,62,227,42*75


$GPRMC,000442.000,A,4733.1321,N,00216.7703,W,019.4,005.6,280510,,*16
$GPGGA,000442.000,4733.1321,N,00216.7703,W,1,3,0.0,51.3,M,48.7,M,,*47
$GPGSV,1,1,3,09,78,044,42,27,61,085,42,12,62,227,42*75


$GPRMC,000442.000,A,4733.1321,N,00216.7703,W,019.4,005.6,280510,,*16
$GPGGA,000442.000,4733.1321,N,00216.7703,W,1,3,0.0,51.3,M,48.7,M,,*47
$GPGSV,1,1,3,09,78,044,42,27,61,085,42,12,62,227,42*75


$GPRMC,000442.000,A,4733.1321,N,00216.7703,W,019.4,005.6,280510,,*16
$GPGGA,000442.000,4733.1321,N,00216.7703,W,1,3,0.0,51.3,M,48.7,M,,*47
$GPGSV,1,1,3,09,78,044,42,27,61,085,42,12,62,227,42*75


$GPRMC,000442.000,A,4733.1321,N,00216.7703,W,019.4,005.6,280510,,*16
$GPGGA,000442.000,4733.1321,N,00216.7703,W,1,3,0.0,51.3,M,48.7,M,,*47
$GPGSV,1,1,3,09,78,044,42,27,61,085,42,12,62,227,42*75


$GPRMC,000442.000,A,4733.1321,N,00216.7703,W,019.4,005.6,280510,,*16
$GPGGA,000442.000,4733.1321,N,00216.7703,W,1,3,0.0,51.3,M,48.7,M,,*47
$GPGSV,1,1,3,09,78,044,42,27,61,085,42,12,62,227,42*75


$GPRMC,000442.000,A,4733.1321,N,00216.7703,W,019.4,005.6,280510,,*16
$GPGGA,000442.000,4733.1321,N,00216.7703,W,1,3,0.0,51.3,M,48.7,M,,*47
$GPGSV,1,1,3,09,78,044,42,27,61,085,42,12,62,227,42*75


$GPRMC,000442.000,A,4733.1321,N,00216.7703,W,019.4,005.6,280510,,*16
$GPGGA,000442.000,4733.1321,N,00216.7703,W,1,3,0.0,51.3,M,48.7,M,,*47
$GPGSV,1,1,3,09,78,044,42,27,61,085,42,12,62,227,42*75


$GPRMC,000442.000,A,4733.1321,N,00216.7703,W,019.4,005.6,280510,,*16
$GPGGA,000442.000,4733.1321,N,00216.7703,W,1,3,0.0,51.3,M,48.7,M,,*47
$GPGSV,1,1,3,09,78,044,42,27,61,085,42,12,62,227,42*75


$GPRMC,000442.000,A,4733.1321,N,00216.7703,W,019.4,005.6,280510,,*16
$GPGGA,000442.000,4733.1321,N,00216.7703,W,1,3,0.0,51.3,M,48.7,M,,*47
$GPGSV,1,1,3,09,78,044,42,27,61,085,42,12,62,227,42*75


$GPRMC,000443.000,A,4733.1374,N,00216.7693,W,019.4,008.6,280510,,*12
$GPGGA,000443.000,4733.1374,N,00216.7693,W,1,4,0.0,51.3,M,48.7,M,,*49
$GPGSV,1,1,4,09,78,044,42,27,61,085,42,12,62,227,42,15,39,165,42*48


$GPRMC,000443.000,A,4733.1374,N,00216.7693,W,019.4,008.6,280510,,*12
$GPGGA,000443.000,4733.1374,N,00216.7693,W,1,4,0.0,51.3,M,48.7,M,,*49
$GPGSV,1,1,4,09,78,044,42,27,61,085,42,12,62,227,42,15,39,165,42*48


$GPRMC,000443.000,A,4733.1374,N,00216.7693,W,019.4,008.6,280510,,*12
$GPGGA,000443.000,4733.1374,N,00216.7693,W,1,4,0.0,51.3,M,48.7,M,,*49
$GPGSV,1,1,4,09,78,044,42,27,61,085,42,12,62,227,42,15,39,165,42*48


$GPRMC,000443.000,A,4733.1374,N,00216.7693,W,019.4,008.6,280510,,*12
$GPGGA,000443.000,4733.1374,N,00216.7693,W,1,4,0.0,51.3,M,48.7,M,,*49
$GPGSV,1,1,4,09,78,044,42,27,61,085,42,12,62,227,42,15,39,165,42*48


$GPRMC,000443.000,A,4733.1374,N,00216.7693,W,019.4,008.6,280510,,*12
$GPGGA,000443.000,4733.1374,N,00216.7693,W,1,4,0.0,51.3,M,48.7,M,,*49
$GPGSV,1,1,4,09,78,044,42,27,61,085,42,12,62,227,42,15,39,165,42*48


$GPRMC,000443.000,A,4733.1374,N,00216.7693,W,019.4,008.6,280510,,*12
$GPGGA,000443.000,4733.1374,N,00216.7693,W,1,4,0.0,51.3,M,48.7,M,,*49
$GPGSV,1,1,4,09,78,044,42,27,61,085,42,12,62,227,42,15,39,165,42*48


$GPRMC,000443.000,A,4733.1374,N,00216.7693,W,019.4,008.6,280510,,*12
$GPGGA,000443.000,4733.1374,N,00216.7693,W,1,4,0.0,51.3,M,48.7,M,,*49
$GPGSV,1,1,4,09,78,044,42,27,61,085,42,12,62,227,42,15,39,165,42*48


$GPRMC,000443.000,A,4733.1374,N,00216.7693,W,019.4,008.6,280510,,*12
$GPGGA,000443.000,4733.1374,N,00216.7693,W,1,4,0.0,51.3,M,48.7,M,,*49
$GPGSV,1,1,4,09,78,044,42,27,61,085,42,12,62,227,42,15,39,165,42*48


$GPRMC,000443.000,A,4733.1374,N,00216.7693,W,019.4,008.6,280510,,*12
$GPGGA,000443.000,4733.1374,N,00216.7693,W,1,4,0.0,51.3,M,48.7,M,,*49
$GPGSV,1,1,4,09,78,044,42,27,61,085,42,12,62,227,42,15,39,165,42*48


$GPRMC,000443.000,A,4733.1374,N,00216.7693,W,019.4,008.6,280510,,*12
$GPGGA,000443.000,4733.1374,N,00216.7693,W,1,4,0.0,51.3,M,48.7,M,,*49
$GPGSV,1,1,4,09,78,044,42,27,61,085,42,12,62,227,42,15,39,165,42*48


$GPRMC,000443.000,A,4733.1374,N,00216.7693,W,019.4,008.6,280510,,*12
$GPGGA,000443.000,4733.1374,N,00216.7693,W,1,4,0.0,51.3,M,48.7,M,,*49
$GPGSV,1,1,4,09,78,044,42,27,61,085,42,12,62,227,42,15,39,165,42*48


$GPRMC,000443.000,A,4733.1374,N,00216.7693,W,019.4,008.6,280510,,*12
$GPGGA,000443.000,4733.1374,N,00216.7693,W,1,4,0.0,51.3,M,48.7,M,,*49
$GPGSV,1,1,4,09,78,044,42,27,61,085,42,12,62,227,42,15,39,165,42*48


$GPRMC,000443.000,A,4733.1374,N,00216.7693,W,019.4,008.6,280510,,*12
$GPGGA,000443.000,4733.1374,N,00216.7693,W,1,4,0.0,51.3,M,48.7,M,,*49
$GPGSV,1,1,4,09,78,044,42,27,61,085,42,12,62,227,42,15,39,165,42*48


$GPRMC,000443.000,A,4733.1374,N,00216.7693,W,019.4,008.6,280510,,*12
$GPGGA,000443.000,4733.1374,N,00216.7693,W,1,4,0.0,51.3,M,48.7,M,,*49
$GPGSV,1,1,4,09,78,044,42,27,61,085,42,12,62,227,42,15,39,165,42*48


$GPRMC,000443.000,A,4733.1374,N,00216.7693,W,019.4,008.6,280510,,*12
$GPGGA,000443.000,4733.1374,N,00216.7693,W,1,4,0.0,51.3,M,48.7,M,,*49
$GPGSV,1,1,4,09,78,044,42,27,61,085,42,12,62,227,42,15,39,165,42*48


$GPRMC,000443.000,A,4733.1374,N,00216.7693,W,019.4,008.6,280510,,*12
$GPGGA,000443.000,4733.1374,N,00216.7693,W,1,4,0.0,51.3,M,48.7,M,,*49
$GPGSV,1,1,4,09,78,044,42,27,61,085,42,12,62,227,42,15,39,165,42*48


$GPRMC,000443.000,A,4733.1374,N,00216.7693,W,019.4,008.6,280510,,*12
$GPGGA,000443.000,4733.1374,N,00216.7693,W,1,4,0.0,51.3,M,48.7,M,,*49
$GPGSV,1,1,4,09,78,044,42,27,61,085,42,12,62,227,42,15,39,165,42*48


$GPRMC,000443.000,A,4733.1374,N,00216.7693,W,019.4,008.6,280510,,*12
$GPGGA,000443.000,4733.1374,N,00216.7693,W,1,4,0.0,51.3,M,48.7,M,,*49
$GPGSV,1,1,4,09,78,044,42,27,61,085,42,12,62,227,42,15,39,165,42*48


$GPRMC,000443.000,A,4733.1374,N,00216.7693,W,019.4,008.6,280510,,*12
$GPGGA,000443.000,4733.1374,N,00216.7693,W,1,4,0.0,51.3,M,48.7,M,,*49
$GPGSV,1,1,4,09,78,044,42,27,61,085,42,12,62,227,42,15,39,165,42*48


$GPRMC,000443.000,A,4733.1374,N,00216.7693,W,019.4,008.6,280510,,*12
$GPGGA,000443.000,4733.1374,N,00216.7693,W,1,4,0.0,51.3,M,48.7,M,,*49
$GPGSV,1,1,4,09,78,044,42,27,61,085,42,12,62,227,42,15,39,165,42*48


$GPRMC,000443.000,A,4733.1374,N,00216.7693,W,019.4,008.6,280510,,*12
$GPGGA,000443.000,4733.1374,N,00216.7693,W,1,4,0.0,51.3,M,48.7,M,,*49
$GPGSV,1,1,4,09,78,044,42,27,61,085,42,12,62,227,42,15,39,165,42*48


$GPRMC,000443.000,A,4733.1374,N,00216.7693,W,019.4,008.6,280510,,*12
$GPGGA,000443.000,4733.1374,N,00216.7693,W,1,4,0.0,51.3,M,48.7,M,,*49
$GPGSV,1,1,4,09,78,044,42,27,61,085,42,12,62,227,42,15,39,165,42*48


$GPRMC,000443.000,A,4733.1374,N,00216.7693,W,019.4,008.6,280510,,*12
$GPGGA,000443.000,4733.1374,N,00216.7693,W,1,4,0.0,51.3,M,48.7,M,,*49
$GPGSV,1,1,4,09,78,044,42,27,61,085,42,12,62,227,42,15,39,165,42*48


$GPRMC,000443.000,A,4733.1374,N,00216.7693,W,019.4,008.6,280510,,*12
$GPGGA,000443.000,4733.1374,N,00216.7693,W,1,4,0.0,51.3,M,48.7,M,,*49
$GPGSV,1,1,4,09,78,044,42,27,61,085,42,12,62,227,42,15,39,165,42*48


$GPRMC,000443.000,A,4733.1374,N,00216.7693,W,019.4,008.6,280510,,*12
$GPGGA,000443.000,4733.1374,N,00216.7693,W,1,4,0.0,51.3,M,48.7,M,,*49
$GPGSV,1,1,4,09,78,044,42,27,61,085,42,12,62,227,42,15,39,165,42*48


$GPRMC,000443.000,A,4733.1374,N,00216.7693,W,019.4,008.6,280510,,*12
$GPGGA,000443.000,4733.1374,N,00216.7693,W,1,4,0.0,51.3,M,48.7,M,,*49
$GPGSV,1,1,4,09,78,044,42,27,61,085,42,12,62,227,42,15,39,165,42*48


$GPRMC,000443.000,A,4733.1374,N,00216.7693,W,019.4,008.6,280510,,*12
$GPGGA,000443.000,4733.1374,N,00216.7693,W,1,4,0.0,51.3,M,48.7,M,,*49
$GPGSV,1,1,4,09,78,044,42,27,61,085,42,12,62,227,42,15,39,165,42*48


$GPRMC,000443.000,A,4733.1374,N,00216.7693,W,019.4,008.6,280510,,*12
$GPGGA,000443.000,4733.1374,N,00216.7693,W,1,4,0.0,51.3,M,48.7,M,,*49
$GPGSV,1,1,4,09,78,044,42,27,61,085,42,12,62,227,42,15,39,165,42*48


$GPRMC,000443.000,A,4733.1374,N,00216.7693,W,019.4,008.6,280510,,*12
$GPGGA,000443.000,4733.1374,N,00216.7693,W,1,4,0.0,51.3,M,48.7,M,,*49
$GPGSV,1,1,4,09,78,044,42,27,61,085,42,12,62,227,42,15,39,165,42*48


$GPRMC,000443.000,A,4733.1374,N,00216.7693,W,019.4,008.6,280510,,*12
$GPGGA,000443.000,4733.1374,N,00216.7693,W,1,4,0.0,51.3,M,48.7,M,,*49
$GPGSV,1,1,4,09,78,044,42,27,61,085,42,12,62,227,42,15,39,165,42*48


$GPRMC,000443.000,A,4733.1374,N,00216.7693,W,019.4,008.6,280510,,*12
$GPGGA,000443.000,4733.1374,N,00216.7693,W,1,4,0.0,51.3,M,48.7,M,,*49
$GPGSV,1,1,4,09,78,044,42,27,61,085,42,12,62,227,42,15,39,165,42*48


$GPRMC,000443.000,A,4733.1374,N,00216.7693,W,019.4,008.6,280510,,*12
$GPGGA,000443.000,4733.1374,N,00216.7693,W,1,4,0.0,51.3,M,48.7,M,,*49
$GPGSV,1,1,4,09,78,044,42,27,61,085,42,12,62,227,42,15,39,165,42*48


$GPRMC,000443.000,A,4733.1374,N,00216.7693,W,019.4,008.6,280510,,*12
$GPGGA,000443.000,4733.1374,N,00216.7693,W,1,4,0.0,51.3,M,48.7,M,,*49
$GPGSV,1,1,4,09,78,044,42,27,61,085,42,12,62,227,42,15,39,165,42*48


$GPRMC,000443.000,A,4733.1374,N,00216.7693,W,019.4,008.6,280510,,*12
$GPGGA,000443.000,4733.1374,N,00216.7693,W,1,4,0.0,51.3,M,48.7,M,,*49
$GPGSV,1,1,4,09,78,044,42,27,61,085,42,12,62,227,42,15,39,165,42*48


$GPRMC,000443.000,A,4733.1374,N,00216.7693,W,019.4,008.6,280510,,*12
$GPGGA,000443.000,4733.1374,N,00216.7693,W,1,4,0.0,51.3,M,48.7,M,,*49
$GPGSV,1,1,4,09,78,044,42,27,61,085,42,12,62,227,42,15,39,165,42*48


$GPRMC,000443.000,A,4733.1374,N,00216.7693,W,019.4,008.6,280510,,*12
$GPGGA,000443.000,4733.1374,N,00216.7693,W,1,4,0.0,51.3,M,48.7,M,,*49
$GPGSV,1,1,4,09,78,044,42,27,61,085,42,12,62,227,42,15,39,165,42*48


$GPRMC,000443.000,A,4733.1374,N,00216.7693,W,019.4,008.6,280510,,*12
$GPGGA,000443.000,4733.1374,N,00216.7693,W,1,4,0.0,51.3,M,48.7,M,,*49
$GPGSV,1,1,4,09,78,044,42,27,61,085,42,12,62,227,42,15,39,165,42*48


$GPRMC,000443.000,A,4733.1374,N,00216.7693,W,019.4,008.6,280510,,*12
$GPGGA,000443.000,4733.1374,N,00216.7693,W,1,4,0.0,51.3,M,48.7,M,,*49
$GPGSV,1,1,4,09,78,044,42,27,61,085,42,12,62,227,42,15,39,165,42*48


$GPRMC,000443.000,A,4733.1374,N,00216.7693,W,019.4,008.6,280510,,*12
$GPGGA,000443.000,4733.1374,N,00216.7693,W,1,4,0.0,51.3,M,48.7,M,,*49
$GPGSV,1,1,4,09,78,044,42,27,61,085,42,12,62,227,42,15,39,165,42*48


$GPRMC,000443.000,A,4733.1374,N,00216.7693,W,019.4,008.6,280510,,*12
$GPGGA,000443.000,4733.1374,N,00216.7693,W,1,4,0.0,51.3,M,48.7,M,,*49
$GPGSV,1,1,4,09,78,044,42,27,61,085,42,12,62,227,42,15,39,165,42*48


$GPRMC,000443.000,A,4733.1374,N,00216.7693,W,019.4,008.6,280510,,*12
$GPGGA,000443.000,4733.1374,N,00216.7693,W,1,4,0.0,51.3,M,48.7,M,,*49
$GPGSV,1,1,4,09,78,044,42,27,61,085,42,12,62,227,42,15,39,165,42*48


$GPRMC,000443.000,A,4733.1374,N,00216.7693,W,019.4,008.6,280510,,*12
$GPGGA,000443.000,4733.1374,N,00216.7693,W,1,4,0.0,51.3,M,48.7,M,,*49
$GPGSV,1,1,4,09,78,044,42,27,61,085,42,12,62,227,42,15,39,165,42*48


$GPRMC,000443.000,A,4733.1374,N,00216.7693,W,019.4,008.6,280510,,*12
$GPGGA,000443.000,4733.1374,N,00216.7693,W,1,4,0.0,51.3,M,48.7,M,,*49
$GPGSV,1,1,4,09,78,044,42,27,61,085,42,12,62,227,42,15,39,165,42*48


$GPRMC,000443.000,A,4733.1374,N,00216.7693,W,019.4,008.6,280510,,*12
$GPGGA,000443.000,4733.1374,N,00216.7693,W,1,4,0.0,51.3,M,48.7,M,,*49
$GPGSV,1,1,4,09,78,044,42,27,61,085,42,12,62,227,42,15,39,165,42*48


$GPRMC,000443.000,A,4733.1374,N,00216.7693,W,019.4,008.6,280510,,*12
$GPGGA,000443.000,4733.1374,N,00216.7693,W,1,4,0.0,51.3,M,48.7,M,,*49
$GPGSV,1,1,4,09,78,044,42,27,61,085,42,12,62,227,42,15,39,165,42*48


$GPRMC,000443.000,A,4733.1374,N,00216.7693,W,019.4,008.6,280510,,*12
$GPGGA,000443.000,4733.1374,N,00216.7693,W,1,4,0.0,51.3,M,48.7,M,,*49
$GPGSV,1,1,4,09,78,044,42,27,61,085,42,12,62,227,42,15,39,165,42*48


$GPRMC,000443.000,A,4733.1374,N,00216.7693,W,019.4,008.6,280510,,*12
$GPGGA,000443.000,4733.1374,N,00216.7693,W,1,4,0.0,51.3,M,48.7,M,,*49
$GPGSV,1,1,4,09,78,044,42,27,61,085,42,12,62,227,42,15,39,165,42*48


$GPRMC,000443.000,A,4733.1374,N,00216.7693,W,019.4,008.6,280510,,*12
$GPGGA,000443.000,4733.1374,N,00216.7693,W,1,4,0.0,51.3,M,48.7,M,,*49
$GPGSV,1,1,4,09,78,044,42,27,61,085,42,12,62,227,42,15,39,165,42*48


$GPRMC,000443.000,A,4733.1374,N,00216.7693,W,019.4,008.6,280510,,*12
$GPGGA,000443.000,4733.1374,N,00216.7693,W,1,4,0.0,51.3,M,48.7,M,,*49
$GPGSV,1,1,4,09,78,044,42,27,61,085,42,12,62,227,42,15,39,165,42*48


$GPRMC,000443.000,A,4733.1374,N,00216.7693,W,019.4,008.6,280510,,*12
$GPGGA,000443.000,4733.1374,N,00216.7693,W,1,4,0.0,51.3,M,48.7,M,,*49
$GPGSV,1,1,4,09,78,044,42,27,61,085,42,12,62,227,42,15,39,165,42*48


$GPRMC,000443.000,A,4733.1374,N,00216.7693,W,019.4,008.6,280510,,*12
$GPGGA,000443.000,4733.1374,N,00216.7693,W,1,4,0.0,51.3,M,48.7,M,,*49
$GPGSV,1,1,4,09,78,044,42,27,61,085,42,12,62,227,42,15,39,165,42*48


$GPRMC,000443.000,A,4733.1374,N,00216.7693,W,019.4,008.6,280510,,*12
$GPGGA,000443.000,4733.1374,N,00216.7693,W,1,4,0.0,51.3,M,48.7,M,,*49
$GPGSV,1,1,4,09,78,044,42,27,61,085,42,12,62,227,42,15,39,165,42*48


$GPRMC,000443.000,A,4733.1374,N,00216.7693,W,019.4,008.6,280510,,*12
$GPGGA,000443.000,4733.1374,N,00216.7693,W,1,4,0.0,51.3,M,48.7,M,,*49
$GPGSV,1,1,4,09,78,044,42,27,61,085,42,12,62,227,42,15,39,165,42*48


$GPRMC,000444.000,A,4733.1428,N,00216.7679,W,019.4,011.6,280510,,*17
$GPGGA,000444.000,4733.1428,N,00216.7679,W,1,4,0.0,51.3,M,48.7,M,,*44
$GPGSV,1,1,4,09,78,044,42,27,61,085,42,12,62,227,42,15,39,165,42*48


$GPRMC,000444.000,A,4733.1428,N,00216.7679,W,019.4,011.6,280510,,*17
$GPGGA,000444.000,4733.1428,N,00216.7679,W,1,4,0.0,51.3,M,48.7,M,,*44
$GPGSV,1,1,4,09,78,044,42,27,61,085,42,12,62,227,42,15,39,165,42*48


$GPRMC,000444.000,A,4733.1428,N,00216.7679,W,019.4,011.6,280510,,*17
$GPGGA,000444.000,4733.1428,N,00216.7679,W,1,4,0.0,51.3,M,48.7,M,,*44
$GPGSV,1,1,4,09,78,044,42,27,61,085,42,12,62,227,42,15,39,165,42*48


$GPRMC,000444.000,A,4733.1428,N,00216.7679,W,019.4,011.6,280510,,*17
$GPGGA,000444.000,4733.1428,N,00216.7679,W,1,4,0.0,51.3,M,48.7,M,,*44
$GPGSV,1,1,4,09,78,044,42,27,61,085,42,12,62,227,42,15,39,165,42*48


$GPRMC,000444.000,A,4733.1428,N,00216.7679,W,019.4,011.6,280510,,*17
$GPGGA,000444.000,4733.1428,N,00216.7679,W,1,4,0.0,51.3,M,48.7,M,,*44
$GPGSV,1,1,4,09,78,044,42,27,61,085,42,12,62,227,42,15,39,165,42*48


$GPRMC,000444.000,A,4733.1428,N,00216.7679,W,019.4,011.6,280510,,*17
$GPGGA,000444.000,4733.1428,N,00216.7679,W,1,4,0.0,51.3,M,48.7,M,,*44
$GPGSV,1,1,4,09,78,044,42,27,61,085,42,12,62,227,42,15,39,165,42*48


$GPRMC,000444.000,A,4733.1428,N,00216.7679,W,019.4,011.6,280510,,*17
$GPGGA,000444.000,4733.1428,N,00216.7679,W,1,4,0.0,51.3,M,48.7,M,,*44
$GPGSV,1,1,4,09,78,044,42,27,61,085,42,12,62,227,42,15,39,165,42*48


$GPRMC,000444.000,A,4733.1428,N,00216.7679,W,019.4,011.6,280510,,*17
$GPGGA,000444.000,4733.1428,N,00216.7679,W,1,4,0.0,51.3,M,48.7,M,,*44
$GPGSV,1,1,4,09,78,044,42,27,61,085,42,12,62,227,42,15,39,165,42*48


$GPRMC,000444.000,A,4733.1428,N,00216.7679,W,019.4,011.6,280510,,*17
$GPGGA,000444.000,4733.1428,N,00216.7679,W,1,4,0.0,51.3,M,48.7,M,,*44
$GPGSV,1,1,4,09,78,044,42,27,61,085,42,12,62,227,42,15,39,165,42*48


$GPRMC,000444.000,A,4733.1428,N,00216.7679,W,019.4,011.6,280510,,*17
$GPGGA,000444.000,4733.1428,N,00216.7679,W,1,4,0.0,51.3,M,48.7,M,,*44
$GPGSV,1,1,4,09,78,044,42,27,61,085,42,12,62,227,42,15,39,165,42*48


$GPRMC,000444.000,A,4733.1428,N,00216.7679,W,019.4,011.6,280510,,*17
$GPGGA,000444.000,4733.1428,N,00216.7679,W,1,4,0.0,51.3,M,48.7,M,,*44
$GPGSV,1,1,4,09,78,044,42,27,61,085,42,12,62,227,42,15,39,165,42*48


$GPRMC,000444.000,A,4733.1428,N,00216.7679,W,019.4,011.6,280510,,*17
$GPGGA,000444.000,4733.1428,N,00216.7679,W,1,4,0.0,51.3,M,48.7,M,,*44
$GPGSV,1,1,4,09,78,044,42,27,61,085,42,12,62,227,42,15,39,165,42*48


$GPRMC,000444.000,A,4733.1428,N,00216.7679,W,019.4,011.6,280510,,*17
$GPGGA,000444.000,4733.1428,N,00216.7679,W,1,4,0.0,51.3,M,48.7,M,,*44
$GPGSV,1,1,4,09,78,044,42,27,61,085,42,12,62,227,42,15,39,165,42*48


$GPRMC,000444.000,A,4733.1428,N,00216.7679,W,019.4,011.6,280510,,*17
$GPGGA,000444.000,4733.1428,N,00216.7679,W,1,4,0.0,51.3,M,48.7,M,,*44
$GPGSV,1,1,4,09,78,044,42,27,61,085,42,12,62,227,42,15,39,165,42*48


$GPRMC,000444.000,A,4733.1428,N,00216.7679,W,019.4,011.6,280510,,*17
$GPGGA,000444.000,4733.1428,N,00216.7679,W,1,4,0.0,51.3,M,48.7,M,,*44
$GPGSV,1,1,4,09,78,044,42,27,61,085,42,12,62,227,42,15,39,165,42*48


$GPRMC,000444.000,A,4733.1428,N,00216.7679,W,019.4,011.6,280510,,*17
$GPGGA,000444.000,4733.1428,N,00216.7679,W,1,4,0.0,51.3,M,48.7,M,,*44
$GPGSV,1,1,4,09,78,044,42,27,61,085,42,12,62,227,42,15,39,165,42*48


$GPRMC,000444.000,A,4733.1428,N,00216.7679,W,019.4,011.6,280510,,*17
$GPGGA,000444.000,4733.1428,N,00216.7679,W,1,4,0.0,51.3,M,48.7,M,,*44
$GPGSV,1,1,4,09,78,044,42,27,61,085,42,12,62,227,42,15,39,165,42*48


$GPRMC,000444.000,A,4733.1428,N,00216.7679,W,019.4,011.6,280510,,*17
$GPGGA,000444.000,4733.1428,N,00216.7679,W,1,4,0.0,51.3,M,48.7,M,,*44
$GPGSV,1,1,4,09,78,044,42,27,61,085,42,12,62,227,42,15,39,165,42*48


$GPRMC,000444.000,A,4733.1428,N,00216.7679,W,019.4,011.6,280510,,*17
$GPGGA,000444.000,4733.1428,N,00216.7679,W,1,4,0.0,51.3,M,48.7,M,,*44
$GPGSV,1,1,4,09,78,044,42,27,61,085,42,12,62,227,42,15,39,165,42*48


$GPRMC,000444.000,A,4733.1428,N,00216.7679,W,019.4,011.6,280510,,*17
$GPGGA,000444.000,4733.1428,N,00216.7679,W,1,4,0.0,51.3,M,48.7,M,,*44
$GPGSV,1,1,4,09,78,044,42,27,61,085,42,12,62,227,42,15,39,165,42*48


$GPRMC,000444.000,A,4733.1428,N,00216.7679,W,019.4,011.6,280510,,*17
$GPGGA,000444.000,4733.1428,N,00216.7679,W,1,4,0.0,51.3,M,48.7,M,,*44
$GPGSV,1,1,4,09,78,044,42,27,61,085,42,12,62,227,42,15,39,165,42*48


$GPRMC,000444.000,A,4733.1428,N,00216.7679,W,019.4,011.6,280510,,*17
$GPGGA,000444.000,4733.1428,N,00216.7679,W,1,4,0.0,51.3,M,48.7,M,,*44
$GPGSV,1,1,4,09,78,044,42,27,61,085,42,12,62,227,42,15,39,165,42*48


$GPRMC,000444.000,A,4733.1428,N,00216.7679,W,019.4,011.6,280510,,*17
$GPGGA,000444.000,4733.1428,N,00216.7679,W,1,4,0.0,51.3,M,48.7,M,,*44
$GPGSV,1,1,4,09,78,044,42,27,61,085,42,12,62,227,42,15,39,165,42*48


$GPRMC,000444.000,A,4733.1428,N,00216.7679,W,019.4,011.6,280510,,*17
$GPGGA,000444.000,4733.1428,N,00216.7679,W,1,4,0.0,51.3,M,48.7,M,,*44
$GPGSV,1,1,4,09,78,044,42,27,61,085,42,12,62,227,42,15,39,165,42*48


$GPRMC,000444.000,A,4733.1428,N,00216.7679,W,019.4,011.6,280510,,*17
$GPGGA,000444.000,4733.1428,N,00216.7679,W,1,4,0.0,51.3,M,48.7,M,,*44
$GPGSV,1,1,4,09,78,044,42,27,61,085,42,12,62,227,42,15,39,165,42*48


$GPRMC,000444.000,A,4733.1428,N,00216.7679,W,019.4,011.6,280510,,*17
$GPGGA,000444.000,4733.1428,N,00216.7679,W,1,4,0.0,51.3,M,48.7,M,,*44
$GPGSV,1,1,4,09,78,044,42,27,61,085,42,12,62,227,42,15,39,165,42*48


$GPRMC,000444.000,A,4733.1428,N,00216.7679,W,019.4,011.6,280510,,*17
$GPGGA,000444.000,4733.1428,N,00216.7679,W,1,4,0.0,51.3,M,48.7,M,,*44
$GPGSV,1,1,4,09,78,044,42,27,61,085,42,12,62,227,42,15,39,165,42*48


$GPRMC,000444.000,A,4733.1428,N,00216.7679,W,019.4,011.6,280510,,*17
$GPGGA,000444.000,4733.1428,N,00216.7679,W,1,4,0.0,51.3,M,48.7,M,,*44
$GPGSV,1,1,4,09,78,044,42,27,61,085,42,12,62,227,42,15,39,165,42*48


$GPRMC,000444.000,A,4733.1428,N,00216.7679,W,019.4,011.6,280510,,*17
$GPGGA,000444.000,4733.1428,N,00216.7679,W,1,4,0.0,51.3,M,48.7,M,,*44
$GPGSV,1,1,4,09,78,044,42,27,61,085,42,12,62,227,42,15,39,165,42*48


$GPRMC,000444.000,A,4733.1428,N,00216.7679,W,019.4,011.6,280510,,*17
$GPGGA,000444.000,4733.1428,N,00216.7679,W,1,4,0.0,51.3,M,48.7,M,,*44
$GPGSV,1,1,4,09,78,044,42,27,61,085,42,12,62,227,42,15,39,165,42*48


$GPRMC,000444.000,A,4733.1428,N,00216.7679,W,019.4,011.6,280510,,*17
$GPGGA,000444.000,4733.1428,N,00216.7679,W,1,4,0.0,51.3,M,48.7,M,,*44
$GPGSV,1,1,4,09,78,044,42,27,61,085,42,12,62,227,42,15,39,165,42*48


$GPRMC,000444.000,A,4733.1428,N,00216.7679,W,019.4,011.6,280510,,*17
$GPGGA,000444.000,4733.1428,N,00216.7679,W,1,4,0.0,51.3,M,48.7,M,,*44
$GPGSV,1,1,4,09,78,044,42,27,61,085,42,12,62,227,42,15,39,165,42*48


$GPRMC,000444.000,A,4733.1428,N,00216.7679,W,019.4,011.6,280510,,*17
$GPGGA,000444.000,4733.1428,N,00216.7679,W,1,4,0.0,51.3,M,48.7,M,,*44
$GPGSV,1,1,4,09,78,044,42,27,61,085,42,12,62,227,42,15,39,165,42*48


$GPRMC,000444.000,A,4733.1428,N,00216.7679,W,019.4,011.6,280510,,*17
$GPGGA,000444.000,4733.1428,N,00216.7679,W,1,4,0.0,51.3,M,48.7,M,,*44
$GPGSV,1,1,4,09,78,044,42,27,61,085,42,12,62,227,42,15,39,165,42*48


$GPRMC,000444.000,A,4733.1428,N,00216.7679,W,019.4,011.6,280510,,*17
$GPGGA,000444.000,4733.1428,N,00216.7679,W,1,4,0.0,51.3,M,48.7,M,,*44
$GPGSV,1,1,4,09,78,044,42,27,61,085,42,12,62,227,42,15,39,165,42*48


$GPRMC,000444.000,A,4733.1428,N,00216.7679,W,019.4,011.6,280510,,*17
$GPGGA,000444.000,4733.1428,N,00216.7679,W,1,4,0.0,51.3,M,48.7,M,,*44
$GPGSV,1,1,4,09,78,044,42,27,61,085,42,12,62,227,42,15,39,165,42*48


$GPRMC,000444.000,A,4733.1428,N,00216.7679,W,019.4,011.6,280510,,*17
$GPGGA,000444.000,4733.1428,N,00216.7679,W,1,4,0.0,51.3,M,48.7,M,,*44
$GPGSV,1,1,4,09,78,044,42,27,61,085,42,12,62,227,42,15,39,165,42*48


$GPRMC,000444.000,A,4733.1428,N,00216.7679,W,019.4,011.6,280510,,*17
$GPGGA,000444.000,4733.1428,N,00216.7679,W,1,4,0.0,51.3,M,48.7,M,,*44
$GPGSV,1,1,4,09,78,044,42,27,61,085,42,12,62,227,42,15,39,165,42*48


$GPRMC,000444.000,A,4733.1428,N,00216.7679,W,019.4,011.6,280510,,*17
$GPGGA,000444.000,4733.1428,N,00216.7679,W,1,4,0.0,51.3,M,48.7,M,,*44
$GPGSV,1,1,4,09,78,044,42,27,61,085,42,12,62,227,42,15,39,165,42*48


$GPRMC,000444.000,A,4733.1428,N,00216.7679,W,019.4,011.6,280510,,*17
$GPGGA,000444.000,4733.1428,N,00216.7679,W,1,4,0.0,51.3,M,48.7,M,,*44
$GPGSV,1,1,4,09,78,044,42,27,61,085,42,12,62,227,42,15,39,165,42*48


$GPRMC,000444.000,A,4733.1428,N,00216.7679,W,019.4,011.6,280510,,*17
$GPGGA,000444.000,4733.1428,N,00216.7679,W,1,4,0.0,51.3,M,48.7,M,,*44
$GPGSV,1,1,4,09,78,044,42,27,61,085,42,12,62,227,42,15,39,165,42*48


$GPRMC,000444.000,A,4733.1428,N,00216.7679,W,019.4,011.6,280510,,*17
$GPGGA,000444.000,4733.1428,N,00216.7679,W,1,4,0.0,51.3,M,48.7,M,,*44
$GPGSV,1,1,4,09,78,044,42,27,61,085,42,12,62,227,42,15,39,165,42*48


$GPRMC,000444.000,A,4733.1428,N,00216.7679,W,019.4,011.6,280510,,*17
$GPGGA,000444.000,4733.1428,N,00216.7679,W,1,4,0.0,51.3,M,48.7,M,,*44
$GPGSV,1,1,4,09,78,044,42,27,61,085,42,12,62,227,42,15,39,165,42*48


$GPRMC,000444.000,A,4733.1428,N,00216.7679,W,019.4,011.6,280510,,*17
$GPGGA,000444.000,4733.1428,N,00216.7679,W,1,4,0.0,51.3,M,48.7,M,,*44
$GPGSV,1,1,4,09,78,044,42,27,61,085,42,12,62,227,42,15,39,165,42*48


$GPRMC,000444.000,A,4733.1428,N,00216.7679,W,019.4,011.6,280510,,*17
$GPGGA,000444.000,4733.1428,N,00216.7679,W,1,4,0.0,51.3,M,48.7,M,,*44
$GPGSV,1,1,4,09,78,044,42,27,61,085,42,12,62,227,42,15,39,165,42*48


$GPRMC,000444.000,A,4733.1428,N,00216.7679,W,019.4,011.6,280510,,*17
$GPGGA,000444.000,4733.1428,N,00216.7679,W,1,4,0.0,51.3,M,48.7,M,,*44
$GPGSV,1,1,4,09,78,044,42,27,61,085,42,12,62,227,42,15,39,165,42*48


$GPRMC,000444.000,A,4733.1428,N,00216.7679,W,019.4,011.6,280510,,*17
$GPGGA,000444.000,4733.1428,N,00216.7679,W,1,4,0.0,51.3,M,48.7,M,,*44
$GPGSV,1,1,4,09,78,044,42,27,61,085,42,12,62,227,42,15,39,165,42*48


$GPRMC,000444.000,A,4733.1428,N,00216.7679,W,019.4,011.6,280510,,*17
$GPGGA,000444.000,4733.1428,N,00216.7679,W,1,4,0.0,51.3,M,48.7,M,,*44
$GPGSV,1,1,4,09,78,044,42,27,61,085,42,12,62,227,42,15,39,165,42*48


$GPRMC,000444.000,A,4733.1428,N,00216.7679,W,019.4,011.6,280510,,*17
$GPGGA,000444.000,4733.1428,N,00216.7679,W,1,4,0.0,51.3,M,48.7,M,,*44
$GPGSV,1,1,4,09,78,044,42,27,61,085,42,12,62,227,42,15,39,165,42*48


$GPRMC,000444.000,A,4733.1428,N,00216.7679,W,019.4,011.6,280510,,*17
$GPGGA,000444.000,4733.1428,N,00216.7679,W,1,4,0.0,51.3,M,48.7,M,,*44
$GPGSV,1,1,4,09,78,044,42,27,61,085,42,12,62,227,42,15,39,165,42*48


$GPRMC,000444.000,A,4733.1428,N,00216.7679,W,019.4,011.6,280510,,*17
$GPGGA,000444.000,4733.1428,N,00216.7679,W,1,4,0.0,51.3,M,48.7,M,,*44
$GPGSV,1,1,4,09,78,044,42,27,61,085,42,12,62,227,42,15,39,165,42*48


$GPRMC,000445.000,A,4733.1480,N,00216.7660,W,019.4,014.6,280510,,*19
$GPGGA,000445.000,4733.1480,N,00216.7660,W,1,4,0.0,51.3,M,48.7,M,,*4F
$GPGSV,1,1,4,09,78,044,42,27,61,085,42,12,62,227,42,15,39,165,42*48


$GPRMC,000445.000,A,4733.1480,N,00216.7660,W,019.4,014.6,280510,,*19
$GPGGA,000445.000,4733.1480,N,00216.7660,W,1,4,0.0,51.3,M,48.7,M,,*4F
$GPGSV,1,1,4,09,78,044,42,27,61,085,42,12,62,227,42,15,39,165,42*48


$GPRMC,000445.000,A,4733.1480,N,00216.7660,W,019.4,014.6,280510,,*19
$GPGGA,000445.000,4733.1480,N,00216.7660,W,1,4,0.0,51.3,M,48.7,M,,*4F
$GPGSV,1,1,4,09,78,044,42,27,61,085,42,12,62,227,42,15,39,165,42*48


$GPRMC,000445.000,A,4733.1480,N,00216.7660,W,019.4,014.6,280510,,*19
$GPGGA,000445.000,4733.1480,N,00216.7660,W,1,4,0.0,51.3,M,48.7,M,,*4F
$GPGSV,1,1,4,09,78,044,42,27,61,085,42,12,62,227,42,15,39,165,42*48


$GPRMC,000445.000,A,4733.1480,N,00216.7660,W,019.4,014.6,280510,,*19
$GPGGA,000445.000,4733.1480,N,00216.7660,W,1,4,0.0,51.3,M,48.7,M,,*4F
$GPGSV,1,1,4,09,78,044,42,27,61,085,42,12,62,227,42,15,39,165,42*48


$GPRMC,000445.000,A,4733.1480,N,00216.7660,W,019.4,014.6,280510,,*19
$GPGGA,000445.000,4733.1480,N,00216.7660,W,1,4,0.0,51.3,M,48.7,M,,*4F
$GPGSV,1,1,4,09,78,044,42,27,61,085,42,12,62,227,42,15,39,165,42*48


$GPRMC,000445.000,A,4733.1480,N,00216.7660,W,019.4,014.6,280510,,*19
$GPGGA,000445.000,4733.1480,N,00216.7660,W,1,4,0.0,51.3,M,48.7,M,,*4F
$GPGSV,1,1,4,09,78,044,42,27,61,085,42,12,62,227,42,15,39,165,42*48


$GPRMC,000445.000,A,4733.1480,N,00216.7660,W,019.4,014.6,280510,,*19
$GPGGA,000445.000,4733.1480,N,00216.7660,W,1,4,0.0,51.3,M,48.7,M,,*4F
$GPGSV,1,1,4,09,78,044,42,27,61,085,42,12,62,227,42,15,39,165,42*48


$GPRMC,000445.000,A,4733.1480,N,00216.7660,W,019.4,014.6,280510,,*19
$GPGGA,000445.000,4733.1480,N,00216.7660,W,1,4,0.0,51.3,M,48.7,M,,*4F
$GPGSV,1,1,4,09,78,044,42,27,61,085,42,12,62,227,42,15,39,165,42*48


$GPRMC,000445.000,A,4733.1480,N,00216.7660,W,019.4,014.6,280510,,*19
$GPGGA,000445.000,4733.1480,N,00216.7660,W,1,4,0.0,51.3,M,48.7,M,,*4F
$GPGSV,1,1,4,09,78,044,42,27,61,085,42,12,62,227,42,15,39,165,42*48


$GPRMC,000445.000,A,4733.1480,N,00216.7660,W,019.4,014.6,280510,,*19
$GPGGA,000445.000,4733.1480,N,00216.7660,W,1,4,0.0,51.3,M,48.7,M,,*4F
$GPGSV,1,1,4,09,78,044,42,27,61,085,42,12,62,227,42,15,39,165,42*48


$GPRMC,000445.000,A,4733.1480,N,00216.7660,W,019.4,014.6,280510,,*19
$GPGGA,000445.000,4733.1480,N,00216.7660,W,1,4,0.0,51.3,M,48.7,M,,*4F
$GPGSV,1,1,4,09,78,044,42,27,61,085,42,12,62,227,42,15,39,165,42*48


$GPRMC,000445.000,A,4733.1480,N,00216.7660,W,019.4,014.6,280510,,*19
$GPGGA,000445.000,4733.1480,N,00216.7660,W,1,4,0.0,51.3,M,48.7,M,,*4F
$GPGSV,1,1,4,09,78,044,42,27,61,085,42,12,62,227,42,15,39,165,42*48


$GPRMC,000445.000,A,4733.1480,N,00216.7660,W,019.4,014.6,280510,,*19
$GPGGA,000445.000,4733.1480,N,00216.7660,W,1,4,0.0,51.3,M,48.7,M,,*4F
$GPGSV,1,1,4,09,78,044,42,27,61,085,42,12,62,227,42,15,39,165,42*48


$GPRMC,000445.000,A,4733.1480,N,00216.7660,W,019.4,014.6,280510,,*19
$GPGGA,000445.000,4733.1480,N,00216.7660,W,1,4,0.0,51.3,M,48.7,M,,*4F
$GPGSV,1,1,4,09,78,044,42,27,61,085,42,12,62,227,42,15,39,165,42*48


$GPRMC,000445.000,A,4733.1480,N,00216.7660,W,019.4,014.6,280510,,*19
$GPGGA,000445.000,4733.1480,N,00216.7660,W,1,4,0.0,51.3,M,48.7,M,,*4F
$GPGSV,1,1,4,09,78,044,42,27,61,085,42,12,62,227,42,15,39,165,42*48


$GPRMC,000445.000,A,4733.1480,N,00216.7660,W,019.4,014.6,280510,,*19
$GPGGA,000445.000,4733.1480,N,00216.7660,W,1,4,0.0,51.3,M,48.7,M,,*4F
$GPGSV,1,1,4,09,78,044,42,27,61,085,42,12,62,227,42,15,39,165,42*48


$GPRMC,000445.000,A,4733.1480,N,00216.7660,W,019.4,014.6,280510,,*19
$GPGGA,000445.000,4733.1480,N,00216.7660,W,1,4,0.0,51.3,M,48.7,M,,*4F
$GPGSV,1,1,4,09,78,044,42,27,61,085,42,12,62,227,42,15,39,165,42*48


$GPRMC,000445.000,A,4733.1480,N,00216.7660,W,019.4,014.6,280510,,*19
$GPGGA,000445.000,4733.1480,N,00216.7660,W,1,4,0.0,51.3,M,48.7,M,,*4F
$GPGSV,1,1,4,09,78,044,42,27,61,085,42,12,62,227,42,15,39,165,42*48


$GPRMC,000445.000,A,4733.1480,N,00216.7660,W,019.4,014.6,280510,,*19
$GPGGA,000445.000,4733.1480,N,00216.7660,W,1,4,0.0,51.3,M,48.7,M,,*4F
$GPGSV,1,1,4,09,78,044,42,27,61,085,42,12,62,227,42,15,39,165,42*48


$GPRMC,000445.000,A,4733.1480,N,00216.7660,W,019.4,014.6,280510,,*19
$GPGGA,000445.000,4733.1480,N,00216.7660,W,1,4,0.0,51.3,M,48.7,M,,*4F
$GPGSV,1,1,4,09,78,044,42,27,61,085,42,12,62,227,42,15,39,165,42*48


$GPRMC,000445.000,A,4733.1480,N,00216.7660,W,019.4,014.6,280510,,*19
$GPGGA,000445.000,4733.1480,N,00216.7660,W,1,4,0.0,51.3,M,48.7,M,,*4F
$GPGSV,1,1,4,09,78,044,42,27,61,085,42,12,62,227,42,15,39,165,42*48


$GPRMC,000445.000,A,4733.1480,N,00216.7660,W,019.4,014.6,280510,,*19
$GPGGA,000445.000,4733.1480,N,00216.7660,W,1,4,0.0,51.3,M,48.7,M,,*4F
$GPGSV,1,1,4,09,78,044,42,27,61,085,42,12,62,227,42,15,39,165,42*48


$GPRMC,000445.000,A,4733.1480,N,00216.7660,W,019.4,014.6,280510,,*19
$GPGGA,000445.000,4733.1480,N,00216.7660,W,1,4,0.0,51.3,M,48.7,M,,*4F
$GPGSV,1,1,4,09,78,044,42,27,61,085,42,12,62,227,42,15,39,165,42*48


$GPRMC,000445.000,A,4733.1480,N,00216.7660,W,019.4,014.6,280510,,*19
$GPGGA,000445.000,4733.1480,N,00216.7660,W,1,4,0.0,51.3,M,48.7,M,,*4F
$GPGSV,1,1,4,09,78,044,42,27,61,085,42,12,62,227,42,15,39,165,42*48


$GPRMC,000445.000,A,4733.1480,N,00216.7660,W,019.4,014.6,280510,,*19
$GPGGA,000445.000,4733.1480,N,00216.7660,W,1,4,0.0,51.3,M,48.7,M,,*4F
$GPGSV,1,1,4,09,78,044,42,27,61,085,42,12,62,227,42,15,39,165,42*48


$GPRMC,000445.000,A,4733.1480,N,00216.7660,W,019.4,014.6,280510,,*19
$GPGGA,000445.000,4733.1480,N,00216.7660,W,1,4,0.0,51.3,M,48.7,M,,*4F
$GPGSV,1,1,4,09,78,044,42,27,61,085,42,12,62,227,42,15,39,165,42*48


$GPRMC,000445.000,A,4733.1480,N,00216.7660,W,019.4,014.6,280510,,*19
$GPGGA,000445.000,4733.1480,N,00216.7660,W,1,4,0.0,51.3,M,48.7,M,,*4F
$GPGSV,1,1,4,09,78,044,42,27,61,085,42,12,62,227,42,15,39,165,42*48


$GPRMC,000445.000,A,4733.1480,N,00216.7660,W,019.4,014.6,280510,,*19
$GPGGA,000445.000,4733.1480,N,00216.7660,W,1,4,0.0,51.3,M,48.7,M,,*4F
$GPGSV,1,1,4,09,78,044,42,27,61,085,42,12,62,227,42,15,39,165,42*48


$GPRMC,000445.000,A,4733.1480,N,00216.7660,W,019.4,014.6,280510,,*19
$GPGGA,000445.000,4733.1480,N,00216.7660,W,1,4,0.0,51.3,M,48.7,M,,*4F
$GPGSV,1,1,4,09,78,044,42,27,61,085,42,12,62,227,42,15,39,165,42*48


$GPRMC,000445.000,A,4733.1480,N,00216.7660,W,019.4,014.6,280510,,*19
$GPGGA,000445.000,4733.1480,N,00216.7660,W,1,4,0.0,51.3,M,48.7,M,,*4F
$GPGSV,1,1,4,09,78,044,42,27,61,085,42,12,62,227,42,15,39,165,42*48


$GPRMC,000445.000,A,4733.1480,N,00216.7660,W,019.4,014.6,280510,,*19
$GPGGA,000445.000,4733.1480,N,00216.7660,W,1,4,0.0,51.3,M,48.7,M,,*4F
$GPGSV,1,1,4,09,78,044,42,27,61,085,42,12,62,227,42,15,39,165,42*48


$GPRMC,000445.000,A,4733.1480,N,00216.7660,W,019.4,014.6,280510,,*19
$GPGGA,000445.000,4733.1480,N,00216.7660,W,1,4,0.0,51.3,M,48.7,M,,*4F
$GPGSV,1,1,4,09,78,044,42,27,61,085,42,12,62,227,42,15,39,165,42*48


$GPRMC,000445.000,A,4733.1480,N,00216.7660,W,019.4,014.6,280510,,*19
$GPGGA,000445.000,4733.1480,N,00216.7660,W,1,4,0.0,51.3,M,48.7,M,,*4F
$GPGSV,1,1,4,09,78,044,42,27,61,085,42,12,62,227,42,15,39,165,42*48


$GPRMC,000445.000,A,4733.1480,N,00216.7660,W,019.4,014.6,280510,,*19
$GPGGA,000445.000,4733.1480,N,00216.7660,W,1,4,0.0,51.3,M,48.7,M,,*4F
