$GPRMC,000435.000,A,4000.0000,N,10500.0000,W,000.0,260.0,280510,,*19
$GPGGA,000435.000,4000.0000,N,10500.0000,W,1,3,0.0,37.1,M,-17.1,M,,*60
$GPGSV,1,1,3,14,74,006,42,22,61,093,42,31,37,182,42*7C


$GPRMC,000435.000,A,4000.0000,N,10500.0000,W,000.0,260.0,280510,,*19
$GPGGA,000435.000,4000.0000,N,10500.0000,W,1,3,0.0,37.1,M,-17.1,M,,*60
$GPGSV,1,1,3,14,74,006,42,22,61,093,42,31,37,182,42*7C


$GPRMC,000435.000,A,4000.0000,N,10500.0000,W,000.0,260.0,280510,,*19
$GPGGA,000435.000,4000.0000,N,10500.0000,W,1,3,0.0,37.1,M,-17.1,M,,*60
$GPGSV,1,1,3,14,74,006,42,22,61,093,42,31,37,182,42*7C


$GPRMC,000435.000,A,4000.0000,N,10500.0000,W,000.0,260.0,280510,,*19
$GPGGA,000435.000,4000.0000,N,10500.0000,W,1,3,0.0,37.1,M,-17.1,M,,*60
$GPGSV,1,1,3,14,74,006,42,22,61,093,42,31,37,182,42*7C


$GPRMC,000435.000,A,4000.0000,N,10500.0000,W,000.0,260.0,280510,,*19
$GPGGA,000435.000,4000.0000,N,10500.0000,W,1,3,0.0,37.1,M,-17.1,M,,*60
$GPGSV,1,1,3,14,74,006,42,22,61,093,42,31,37,182,42*7C


$GPRMC,000435.000,A,4000.0000,N,10500.0000,W,000.0,260.0,280510,,*19
$GPGGA,000435.000,4000.0000,N,10500.0000,W,1,3,0.0,37.1,M,-17.1,M,,*60
$GPGSV,1,1,3,14,74,006,42,22,61,093,42,31,37,182,42*7C


$GPRMC,000435.000,A,4000.0000,N,10500.0000,W,000.0,260.0,280510,,*19
$GPGGA,000435.000,4000.0000,N,10500.0000,W,1,3,0.0,37.1,M,-17.1,M,,*60
$GPGSV,1,1,3,14,74,006,42,22,61,093,42,31,37,182,42*7C


$GPRMC,000435.000,A,4000.0000,N,10500.0000,W,000.0,260.0,280510,,*19
$GPGGA,000435.000,4000.0000,N,10500.0000,W,1,3,0.0,37.1,M,-17.1,M,,*60
$GPGSV,1,1,3,14,74,006,42,22,61,093,42,31,37,182,42*7C


$GPRMC,000435.000,A,4000.0000,N,10500.0000,W,000.0,260.0,280510,,*19
$GPGGA,000435.000,4000.0000,N,10500.0000,W,1,3,0.0,37.1,M,-17.1,M,,*60
$GPGSV,1,1,3,14,74,006,42,22,61,093,42,31,37,182,42*7C


$GPRMC,000435.000,A,4000.0000,N,10500.0000,W,000.0,260.0,280510,,*19
$GPGGA,000435.000,4000.0000,N,10500.0000,W,1,3,0.0,37.1,M,-17.1,M,,*60
$GPGSV,1,1,3,14,74,006,42,22,61,093,42,31,37,182,42*7C


$GPRMC,000435.000,A,4000.0000,N,10500.0000,W,000.0,260.0,280510,,*19
$GPGGA,000435.000,4000.0000,N,10500.0000,W,1,3,0.0,37.1,M,-17.1,M,,*60
$GPGSV,1,1,3,14,74,006,42,22,61,093,42,31,37,182,42*7C


$GPRMC,000435.000,A,4000.0000,N,10500.0000,W,000.0,260.0,280510,,*19
$GPGGA,000435.000,4000.0000,N,10500.0000,W,1,3,0.0,37.1,M,-17.1,M,,*60
$GPGSV,1,1,3,14,74,006,42,22,61,093,42,31,37,182,42*7C


$GPRMC,000435.000,A,4000.0000,N,10500.0000,W,000.0,260.0,280510,,*19
$GPGGA,000435.000,4000.0000,N,10500.0000,W,1,3,0.0,37.1,M,-17.1,M,,*60
$GPGSV,1,1,3,14,74,006,42,22,61,093,42,31,37,182,42*7C


$GPRMC,000435.000,A,4000.0000,N,10500.0000,W,000.0,260.0,280510,,*19
$GPGGA,000435.000,4000.0000,N,10500.0000,W,1,3,0.0,37.1,M,-17.1,M,,*60
$GPGSV,1,1,3,14,74,006,42,22,61,093,42,31,37,182,42*7C


$GPRMC,000435.000,A,4000.0000,N,10500.0000,W,000.0,260.0,280510,,*19
$GPGGA,000435.000,4000.0000,N,10500.0000,W,1,3,0.0,37.1,M,-17.1,M,,*60
$GPGSV,1,1,3,14,74,006,42,22,61,093,42,31,37,182,42*7C


$GPRMC,000435.000,A,4000.0000,N,10500.0000,W,000.0,260.0,280510,,*19
$GPGGA,000435.000,4000.0000,N,10500.0000,W,1,3,0.0,37.1,M,-17.1,M,,*60
$GPGSV,1,1,3,14,74,006,42,22,61,093,42,31,37,182,42*7C


$GPRMC,000435.000,A,4000.0000,N,10500.0000,W,000.0,260.0,280510,,*19
$GPGGA,000435.000,4000.0000,N,10500.0000,W,1,3,0.0,37.1,M,-17.1,M,,*60
$GPGSV,1,1,3,14,74,006,42,22,61,093,42,31,37,182,42*7C


$GPRMC,000435.000,A,4000.0000,N,10500.0000,W,000.0,260.0,280510,,*19
$GPGGA,000435.000,4000.0000,N,10500.0000,W,1,3,0.0,37.1,M,-17.1,M,,*60
$GPGSV,1,1,3,14,74,006,42,22,61,093,42,31,37,182,42*7C


$GPRMC,000435.000,A,4000.0000,N,10500.0000,W,000.0,260.0,280510,,*19
$GPGGA,000435.000,4000.0000,N,10500.0000,W,1,3,0.0,37.1,M,-17.1,M,,*60
$GPGSV,1,1,3,14,74,006,42,22,61,093,42,31,37,182,42*7C


$GPRMC,000435.000,A,4000.0000,N,10500.0000,W,000.0,260.0,280510,,*19
$GPGGA,000435.000,4000.0000,N,10500.0000,W,1,3,0.0,37.1,M,-17.1,M,,*60
$GPGSV,1,1,3,14,74,006,42,22,61,093,42,31,37,182,42*7C


$GPRMC,000435.000,A,4000.0000,N,10500.0000,W,000.0,260.0,280510,,*19
$GPGGA,000435.000,4000.0000,N,10500.0000,W,1,3,0.0,37.1,M,-17.1,M,,*60
$GPGSV,1,1,3,14,74,006,42,22,61,093,42,31,37,182,42*7C


$GPRMC,000435.000,A,4000.0000,N,10500.0000,W,000.0,260.0,280510,,*19
$GPGGA,000435.000,4000.0000,N,10500.0000,W,1,3,0.0,37.1,M,-17.1,M,,*60
$GPGSV,1,1,3,14,74,006,42,22,61,093,42,31,37,182,42*7C


$GPRMC,000435.000,A,4000.0000,N,10500.0000,W,000.0,260.0,280510,,*19
$GPGGA,000435.000,4000.0000,N,10500.0000,W,1,3,0.0,37.1,M,-17.1,M,,*60
$GPGSV,1,1,3,14,74,006,42,22,61,093,42,31,37,182,42*7C


$GPRMC,000435.000,A,4000.0000,N,10500.0000,W,000.0,260.0,280510,,*19
$GPGGA,000435.000,4000.0000,N,10500.0000,W,1,3,0.0,37.1,M,-17.1,M,,*60
$GPGSV,1,1,3,14,74,006,42,22,61,093,42,31,37,182,42*7C


$GPRMC,000435.000,A,4000.0000,N,10500.0000,W,000.0,260.0,280510,,*19
$GPGGA,000435.000,4000.0000,N,10500.0000,W,1,3,0.0,37.1,M,-17.1,M,,*60
$GPGSV,1,1,3,14,74,006,42,22,61,093,42,31,37,182,42*7C


$GPRMC,000435.000,A,4000.0000,N,10500.0000,W,000.0,260.0,280510,,*19
$GPGGA,000435.000,4000.0000,N,10500.0000,W,1,3,0.0,37.1,M,-17.1,M,,*60
$GPGSV,1,1,3,14,74,006,42,22,61,093,42,31,37,182,42*7C


$GPRMC,000435.000,A,4000.0000,N,10500.0000,W,000.0,260.0,280510,,*19
$GPGGA,000435.000,4000.0000,N,10500.0000,W,1,3,0.0,37.1,M,-17.1,M,,*60
$GPGSV,1,1,3,14,74,006,42,22,61,093,42,31,37,182,42*7C


$GPRMC,000435.000,A,4000.0000,N,10500.0000,W,000.0,260.0,280510,,*19
$GPGGA,000435.000,4000.0000,N,10500.0000,W,1,3,0.0,37.1,M,-17.1,M,,*60
$GPGSV,1,1,3,14,74,006,42,22,61,093,42,31,37,182,42*7C


$GPRMC,000435.000,A,4000.0000,N,10500.0000,W,000.0,260.0,280510,,*19
$GPGGA,000435.000,4000.0000,N,10500.0000,W,1,3,0.0,37.1,M,-17.1,M,,*60
$GPGSV,1,1,3,14,74,006,42,22,61,093,42,31,37,182,42*7C


$GPRMC,000435.000,A,4000.0000,N,10500.0000,W,000.0,260.0,280510,,*19
$GPGGA,000435.000,4000.0000,N,10500.0000,W,1,3,0.0,37.1,M,-17.1,M,,*60
$GPGSV,1,1,3,14,74,006,42,22,61,093,42,31,37,182,42*7C


$GPRMC,000435.000,A,4000.0000,N,10500.0000,W,000.0,260.0,280510,,*19
$GPGGA,000435.000,4000.0000,N,10500.0000,W,1,3,0.0,37.1,M,-17.1,M,,*60
$GPGSV,1,1,3,14,74,006,42,22,61,093,42,31,37,182,42*7C


$GPRMC,000435.000,A,4000.0000,N,10500.0000,W,000.0,260.0,280510,,*19
$GPGGA,000435.000,4000.0000,N,10500.0000,W,1,3,0.0,37.1,M,-17.1,M,,*60
$GPGSV,1,1,3,14,74,006,42,22,61,093,42,31,37,182,42*7C


$GPRMC,000435.000,A,4000.0000,N,10500.0000,W,000.0,260.0,280510,,*19
$GPGGA,000435.000,4000.0000,N,10500.0000,W,1,3,0.0,37.1,M,-17.1,M,,*60
$GPGSV,1,1,3,14,74,006,42,22,61,093,42,31,37,182,42*7C


$GPRMC,000435.000,A,4000.0000,N,10500.0000,W,000.0,260.0,280510,,*19
$GPGGA,000435.000,4000.0000,N,10500.0000,W,1,3,0.0,37.1,M,-17.1,M,,*60
$GPGSV,1,1,3,14,74,006,42,22,61,093,42,31,37,182,42*7C


$GPRMC,000436.000,A,3959.9968,N,10500.0000,W,019.4,180.0,280510,,*17
$GPGGA,000436.000,3959.9968,N,10500.0000,W,1,3,0.0,37.1,M,-17.1,M,,*6F
$GPGSV,1,1,3,14,74,006,42,22,61,093,42,31,37,182,42*7C


$GPRMC,000436.000,A,3959.9968,N,10500.0000,W,019.4,180.0,280510,,*17
$GPGGA,000436.000,3959.9968,N,10500.0000,W,1,3,0.0,37.1,M,-17.1,M,,*6F
$GPGSV,1,1,3,14,74,006,42,22,61,093,42,31,37,182,42*7C


$GPRMC,000436.000,A,3959.9968,N,10500.0000,W,019.4,180.0,280510,,*17
$GPGGA,000436.000,3959.9968,N,10500.0000,W,1,3,0.0,37.1,M,-17.1,M,,*6F
$GPGSV,1,1,3,14,74,006,42,22,61,093,42,31,37,182,42*7C


$GPRMC,000436.000,A,3959.9968,N,10500.0000,W,019.4,180.0,280510,,*17
$GPGGA,000436.000,3959.9968,N,10500.0000,W,1,3,0.0,37.1,M,-17.1,M,,*6F
$GPGSV,1,1,3,14,74,006,42,22,61,093,42,31,37,182,42*7C


$GPRMC,000436.000,A,3959.9968,N,10500.0000,W,019.4,180.0,280510,,*17
$GPGGA,000436.000,3959.9968,N,10500.0000,W,1,3,0.0,37.1,M,-17.1,M,,*6F
$GPGSV,1,1,3,14,74,006,42,22,61,093,42,31,37,182,42*7C


$GPRMC,000436.000,A,3959.9968,N,10500.0000,W,019.4,180.0,280510,,*17
$GPGGA,000436.000,3959.9968,N,10500.0000,W,1,3,0.0,37.1,M,-17.1,M,,*6F
$GPGSV,1,1,3,14,74,006,42,22,61,093,42,31,37,182,42*7C


$GPRMC,000436.000,A,3959.9968,N,10500.0000,W,019.4,180.0,280510,,*17
$GPGGA,000436.000,3959.9968,N,10500.0000,W,1,3,0.0,37.1,M,-17.1,M,,*6F
$GPGSV,1,1,3,14,74,006,42,22,61,093,42,31,37,182,42*7C


$GPRMC,000436.000,A,3959.9968,N,10500.0000,W,019.4,180.0,280510,,*17
$GPGGA,000436.000,3959.9968,N,10500.0000,W,1,3,0.0,37.1,M,-17.1,M,,*6F
$GPGSV,1,1,3,14,74,006,42,22,61,093,42,31,37,182,42*7C


$GPRMC,000436.000,A,3959.9968,N,10500.0000,W,019.4,180.0,280510,,*17
$GPGGA,000436.000,3959.9968,N,10500.0000,W,1,3,0.0,37.1,M,-17.1,M,,*6F
$GPGSV,1,1,3,14,74,006,42,22,61,093,42,31,37,182,42*7C


$GPRMC,000436.000,A,3959.9968,N,10500.0000,W,019.4,180.0,280510,,*17
$GPGGA,000436.000,3959.9968,N,10500.0000,W,1,3,0.0,37.1,M,-17.1,M,,*6F
$GPGSV,1,1,3,14,74,006,42,22,61,093,42,31,37,182,42*7C


$GPRMC,000436.000,A,3959.9968,N,10500.0000,W,019.4,180.0,280510,,*17
$GPGGA,000436.000,3959.9968,N,10500.0000,W,1,3,0.0,37.1,M,-17.1,M,,*6F
$GPGSV,1,1,3,14,74,006,42,22,61,093,42,31,37,182,42*7C


$GPRMC,000436.000,A,3959.9968,N,10500.0000,W,019.4,180.0,280510,,*17
$GPGGA,000436.000,3959.9968,N,10500.0000,W,1,3,0.0,37.1,M,-17.1,M,,*6F
$GPGSV,1,1,3,14,74,006,42,22,61,093,42,31,37,182,42*7C


$GPRMC,000436.000,A,3959.9968,N,10500.0000,W,019.4,180.0,280510,,*17
$GPGGA,000436.000,3959.9968,N,10500.0000,W,1,3,0.0,37.1,M,-17.1,M,,*6F
$GPGSV,1,1,3,14,74,006,42,22,61,093,42,31,37,182,42*7C


$GPRMC,000436.000,A,3959.9968,N,10500.0000,W,019.4,180.0,280510,,*17
$GPGGA,000436.000,3959.9968,N,10500.0000,W,1,3,0.0,37.1,M,-17.1,M,,*6F
$GPGSV,1,1,3,14,74,006,42,22,61,093,42,31,37,182,42*7C


$GPRMC,000436.000,A,3959.9968,N,10500.0000,W,019.4,180.0,280510,,*17
$GPGGA,000436.000,3959.9968,N,10500.0000,W,1,3,0.0,37.1,M,-17.1,M,,*6F
$GPGSV,1,1,3,14,74,006,42,22,61,093,42,31,37,182,42*7C


$GPRMC,000436.000,A,3959.9968,N,10500.0000,W,019.4,180.0,280510,,*17
$GPGGA,000436.000,3959.9968,N,10500.0000,W,1,3,0.0,37.1,M,-17.1,M,,*6F
$GPGSV,1,1,3,14,74,006,42,22,61,093,42,31,37,182,42*7C


$GPRMC,000436.000,A,3959.9968,N,10500.0000,W,019.4,180.0,280510,,*17
$GPGGA,000436.000,3959.9968,N,10500.0000,W,1,3,0.0,37.1,M,-17.1,M,,*6F
$GPGSV,1,1,3,14,74,006,42,22,61,093,42,31,37,182,42*7C


$GPRMC,000436.000,A,3959.9968,N,10500.0000,W,019.4,180.0,280510,,*17
$GPGGA,000436.000,3959.9968,N,10500.0000,W,1,3,0.0,37.1,M,-17.1,M,,*6F
$GPGSV,1,1,3,14,74,006,42,22,61,093,42,31,37,182,42*7C


$GPRMC,000436.000,A,3959.9968,N,10500.0000,W,019.4,180.0,280510,,*17
$GPGGA,000436.000,3959.9968,N,10500.0000,W,1,3,0.0,37.1,M,-17.1,M,,*6F
$GPGSV,1,1,3,14,74,006,42,22,61,093,42,31,37,182,42*7C


$GPRMC,000436.000,A,3959.9968,N,10500.0000,W,019.4,180.0,280510,,*17
$GPGGA,000436.000,3959.9968,N,10500.0000,W,1,3,0.0,37.1,M,-17.1,M,,*6F
$GPGSV,1,1,3,14,74,006,42,22,61,093,42,31,37,182,42*7C


$GPRMC,000436.000,A,3959.9968,N,10500.0000,W,019.4,180.0,280510,,*17
$GPGGA,000436.000,3959.9968,N,10500.0000,W,1,3,0.0,37.1,M,-17.1,M,,*6F
$GPGSV,1,1,3,14,74,006,42,22,61,093,42,31,37,182,42*7C


$GPRMC,000436.000,A,3959.9968,N,10500.0000,W,019.4,180.0,280510,,*17
$GPGGA,000436.000,3959.9968,N,10500.0000,W,1,3,0.0,37.1,M,-17.1,M,,*6F
$GPGSV,1,1,3,14,74,006,42,22,61,093,42,31,37,182,42*7C


$GPRMC,000436.000,A,3959.9968,N,10500.0000,W,019.4,180.0,280510,,*17
$GPGGA,000436.000,3959.9968,N,10500.0000,W,1,3,0.0,37.1,M,-17.1,M,,*6F
$GPGSV,1,1,3,14,74,006,42,22,61,093,42,31,37,182,42*7C


$GPRMC,000436.000,A,3959.9968,N,10500.0000,W,019.4,180.0,280510,,*17
$GPGGA,000436.000,3959.9968,N,10500.0000,W,1,3,0.0,37.1,M,-17.1,M,,*6F
$GPGSV,1,1,3,14,74,006,42,22,61,093,42,31,37,182,42*7C


$GPRMC,000436.000,A,3959.9968,N,10500.0000,W,019.4,180.0,280510,,*17
$GPGGA,000436.000,3959.9968,N,10500.0000,W,1,3,0.0,37.1,M,-17.1,M,,*6F
$GPGSV,1,1,3,14,74,006,42,22,61,093,42,31,37,182,42*7C


$GPRMC,000436.000,A,3959.9968,N,10500.0000,W,019.4,180.0,280510,,*17
$GPGGA,000436.000,3959.9968,N,10500.0000,W,1,3,0.0,37.1,M,-17.1,M,,*6F
$GPGSV,1,1,3,14,74,006,42,22,61,093,42,31,37,182,42*7C


$GPRMC,000436.000,A,3959.9968,N,10500.0000,W,019.4,180.0,280510,,*17
$GPGGA,000436.000,3959.9968,N,10500.0000,W,1,3,0.0,37.1,M,-17.1,M,,*6F
$GPGSV,1,1,3,14,74,006,42,22,61,093,42,31,37,182,42*7C


$GPRMC,000436.000,A,3959.9968,N,10500.0000,W,019.4,180.0,280510,,*17
$GPGGA,000436.000,3959.9968,N,10500.0000,W,1,3,0.0,37.1,M,-17.1,M,,*6F
$GPGSV,1,1,3,14,74,006,42,22,61,093,42,31,37,182,42*7C


$GPRMC,000436.000,A,3959.9968,N,10500.0000,W,019.4,180.0,280510,,*17
$GPGGA,000436.000,3959.9968,N,10500.0000,W,1,3,0.0,37.1,M,-17.1,M,,*6F
$GPGSV,1,1,3,14,74,006,42,22,61,093,42,31,37,182,42*7C


$GPRMC,000436.000,A,3959.9968,N,10500.0000,W,019.4,180.0,280510,,*17
$GPGGA,000436.000,3959.9968,N,10500.0000,W,1,3,0.0,37.1,M,-17.1,M,,*6F
$GPGSV,1,1,3,14,74,006,42,22,61,093,42,31,37,182,42*7C


$GPRMC,000436.000,A,3959.9968,N,10500.0000,W,019.4,180.0,280510,,*17
$GPGGA,000436.000,3959.9968,N,10500.0000,W,1,3,0.0,37.1,M,-17.1,M,,*6F
$GPGSV,1,1,3,14,74,006,42,22,61,093,42,31,37,182,42*7C


$GPRMC,000436.000,A,3959.9968,N,10500.0000,W,019.4,180.0,280510,,*17
$GPGGA,000436.000,3959.9968,N,10500.0000,W,1,3,0.0,37.1,M,-17.1,M,,*6F
$GPGSV,1,1,3,14,74,006,42,22,61,093,42,31,37,182,42*7C


$GPRMC,000436.000,A,3959.9968,N,10500.0000,W,019.4,180.0,280510,,*17
$GPGGA,000436.000,3959.9968,N,10500.0000,W,1,3,0.0,37.1,M,-17.1,M,,*6F
$GPGSV,1,1,3,14,74,006,42,22,61,093,42,31,37,182,42*7C


$GPRMC,000436.000,A,3959.9968,N,10500.0000,W,019.4,180.0,280510,,*17
$GPGGA,000436.000,3959.9968,N,10500.0000,W,1,3,0.0,37.1,M,-17.1,M,,*6F
$GPGSV,1,1,3,14,74,006,42,22,61,093,42,31,37,182,42*7C


$GPRMC,000436.000,A,3959.9968,N,10500.0000,W,019.4,180.0,280510,,*17
$GPGGA,000436.000,3959.9968,N,10500.0000,W,1,3,0.0,37.1,M,-17.1,M,,*6F
$GPGSV,1,1,3,14,74,006,42,22,61,093,42,31,37,182,42*7C


$GPRMC,000436.000,A,3959.9968,N,10500.0000,W,019.4,180.0,280510,,*17
$GPGGA,000436.000,3959.9968,N,10500.0000,W,1,3,0.0,37.1,M,-17.1,M,,*6F
$GPGSV,1,1,3,14,74,006,42,22,61,093,42,31,37,182,42*7C


$GPRMC,000436.000,A,3959.9968,N,10500.0000,W,019.4,180.0,280510,,*17
$GPGGA,000436.000,3959.9968,N,10500.0000,W,1,3,0.0,37.1,M,-17.1,M,,*6F
$GPGSV,1,1,3,14,74,006,42,22,61,093,42,31,37,182,42*7C


$GPRMC,000436.000,A,3959.9968,N,10500.0000,W,019.4,180.0,280510,,*17
$GPGGA,000436.000,3959.9968,N,10500.0000,W,1,3,0.0,37.1,M,-17.1,M,,*6F
$GPGSV,1,1,3,14,74,006,42,22,61,093,42,31,37,182,42*7C


$GPRMC,000436.000,A,3959.9968,N,10500.0000,W,019.4,180.0,280510,,*17
$GPGGA,000436.000,3959.9968,N,10500.0000,W,1,3,0.0,37.1,M,-17.1,M,,*6F
$GPGSV,1,1,3,14,74,006,42,22,61,093,42,31,37,182,42*7C


$GPRMC,000436.000,A,3959.9968,N,10500.0000,W,019.4,180.0,280510,,*17
$GPGGA,000436.000,3959.9968,N,10500.0000,W,1,3,0.0,37.1,M,-17.1,M,,*6F
$GPGSV,1,1,3,14,74,006,42,22,61,093,42,31,37,182,42*7C


$GPRMC,000436.000,A,3959.9968,N,10500.0000,W,019.4,180.0,280510,,*17
$GPGGA,000436.000,3959.9968,N,10500.0000,W,1,3,0.0,37.1,M,-17.1,M,,*6F
$GPGSV,1,1,3,14,74,006,42,22,61,093,42,31,37,182,42*7C


$GPRMC,000436.000,A,3959.9968,N,10500.0000,W,019.4,180.0,280510,,*17
$GPGGA,000436.000,3959.9968,N,10500.0000,W,1,3,0.0,37.1,M,-17.1,M,,*6F
$GPGSV,1,1,3,14,74,006,42,22,61,093,42,31,37,182,42*7C


$GPRMC,000436.000,A,3959.9968,N,10500.0000,W,019.4,180.0,280510,,*17
$GPGGA,000436.000,3959.9968,N,10500.0000,W,1,3,0.0,37.1,M,-17.1,M,,*6F
$GPGSV,1,1,3,14,74,006,42,22,61,093,42,31,37,182,42*7C


$GPRMC,000436.000,A,3959.9968,N,10500.0000,W,019.4,180.0,280510,,*17
$GPGGA,000436.000,3959.9968,N,10500.0000,W,1,3,0.0,37.1,M,-17.1,M,,*6F
$GPGSV,1,1,3,14,74,006,42,22,61,093,42,31,37,182,42*7C


$GPRMC,000436.000,A,3959.9968,N,10500.0000,W,019.4,180.0,280510,,*17
$GPGGA,000436.000,3959.9968,N,10500.0000,W,1,3,0.0,37.1,M,-17.1,M,,*6F
$GPGSV,1,1,3,14,74,006,42,22,61,093,42,31,37,182,42*7C


$GPRMC,000436.000,A,3959.9968,N,10500.0000,W,019.4,180.0,280510,,*17
$GPGGA,000436.000,3959.9968,N,10500.0000,W,1,3,0.0,37.1,M,-17.1,M,,*6F
$GPGSV,1,1,3,14,74,006,42,22,61,093,42,31,37,182,42*7C


$GPRMC,000436.000,A,3959.9968,N,10500.0000,W,019.4,180.0,280510,,*17
$GPGGA,000436.000,3959.9968,N,10500.0000,W,1,3,0.0,37.1,M,-17.1,M,,*6F
$GPGSV,1,1,3,14,74,006,42,22,61,093,42,31,37,182,42*7C


$GPRMC,000436.000,A,3959.9968,N,10500.0000,W,019.4,180.0,280510,,*17
$GPGGA,000436.000,3959.9968,N,10500.0000,W,1,3,0.0,37.1,M,-17.1,M,,*6F
$GPGSV,1,1,3,14,74,006,42,22,61,093,42,31,37,182,42*7C


$GPRMC,000436.000,A,3959.9968,N,10500.0000,W,019.4,180.0,280510,,*17
$GPGGA,000436.000,3959.9968,N,10500.0000,W,1,3,0.0,37.1,M,-17.1,M,,*6F
$GPGSV,1,1,3,14,74,006,42,22,61,093,42,31,37,182,42*7C


$GPRMC,000436.000,A,3959.9968,N,10500.0000,W,019.4,180.0,280510,,*17
$GPGGA,000436.000,3959.9968,N,10500.0000,W,1,3,0.0,37.1,M,-17.1,M,,*6F
$GPGSV,1,1,3,14,74,006,42,22,61,093,42,31,37,182,42*7C


$GPRMC,000437.000,A,3959.9914,N,10500.0000,W,019.4,180.0,280510,,*1D
$GPGGA,000437.000,3959.9914,N,10500.0000,W,1,3,0.0,37.1,M,-17.1,M,,*65
$GPGSV,1,1,3,14,74,006,42,22,61,093,42,31,37,182,42*7C


$GPRMC,000437.000,A,3959.9914,N,10500.0000,W,019.4,180.0,280510,,*1D
$GPGGA,000437.000,3959.9914,N,10500.0000,W,1,3,0.0,37.1,M,-17.1,M,,*65
$GPGSV,1,1,3,14,74,006,42,22,61,093,42,31,37,182,42*7C


$GPRMC,000437.000,A,3959.9914,N,10500.0000,W,019.4,180.0,280510,,*1D
$GPGGA,000437.000,3959.9914,N,10500.0000,W,1,3,0.0,37.1,M,-17.1,M,,*65
$GPGSV,1,1,3,14,74,006,42,22,61,093,42,31,37,182,42*7C


$GPRMC,000437.000,A,3959.9914,N,10500.0000,W,019.4,180.0,280510,,*1D
$GPGGA,000437.000,3959.9914,N,10500.0000,W,1,3,0.0,37.1,M,-17.1,M,,*65
$GPGSV,1,1,3,14,74,006,42,22,61,093,42,31,37,182,42*7C


$GPRMC,000437.000,A,3959.9914,N,10500.0000,W,019.4,180.0,280510,,*1D
$GPGGA,000437.000,3959.9914,N,10500.0000,W,1,3,0.0,37.1,M,-17.1,M,,*65
$GPGSV,1,1,3,14,74,006,42,22,61,093,42,31,37,182,42*7C


$GPRMC,000437.000,A,3959.9914,N,10500.0000,W,019.4,180.0,280510,,*1D
$GPGGA,000437.000,3959.9914,N,10500.0000,W,1,3,0.0,37.1,M,-17.1,M,,*65
$GPGSV,1,1,3,14,74,006,42,22,61,093,42,31,37,182,42*7C


$GPRMC,000437.000,A,3959.9914,N,10500.0000,W,019.4,180.0,280510,,*1D
$GPGGA,000437.000,3959.9914,N,10500.0000,W,1,3,0.0,37.1,M,-17.1,M,,*65
$GPGSV,1,1,3,14,74,006,42,22,61,093,42,31,37,182,42*7C


$GPRMC,000437.000,A,3959.9914,N,10500.0000,W,019.4,180.0,280510,,*1D
$GPGGA,000437.000,3959.9914,N,10500.0000,W,1,3,0.0,37.1,M,-17.1,M,,*65
$GPGSV,1,1,3,14,74,006,42,22,61,093,42,31,37,182,42*7C


$GPRMC,000437.000,A,3959.9914,N,10500.0000,W,019.4,180.0,280510,,*1D
$GPGGA,000437.000,3959.9914,N,10500.0000,W,1,3,0.0,37.1,M,-17.1,M,,*65
$GPGSV,1,1,3,14,74,006,42,22,61,093,42,31,37,182,42*7C


$GPRMC,000437.000,A,3959.9914,N,10500.0000,W,019.4,180.0,280510,,*1D
$GPGGA,000437.000,3959.9914,N,10500.0000,W,1,3,0.0,37.1,M,-17.1,M,,*65
$GPGSV,1,1,3,14,74,006,42,22,61,093,42,31,37,182,42*7C


$GPRMC,000437.000,A,3959.9914,N,10500.0000,W,019.4,180.0,280510,,*1D
$GPGGA,000437.000,3959.9914,N,10500.0000,W,1,3,0.0,37.1,M,-17.1,M,,*65
$GPGSV,1,1,3,14,74,006,42,22,61,093,42,31,37,182,42*7C


$GPRMC,000437.000,A,3959.9914,N,10500.0000,W,019.4,180.0,280510,,*1D
$GPGGA,000437.000,3959.9914,N,10500.0000,W,1,3,0.0,37.1,M,-17.1,M,,*65
$GPGSV,1,1,3,14,74,006,42,22,61,093,42,31,37,182,42*7C


$GPRMC,000437.000,A,3959.9914,N,10500.0000,W,019.4,180.0,280510,,*1D
$GPGGA,000437.000,3959.9914,N,10500.0000,W,1,3,0.0,37.1,M,-17.1,M,,*65
$GPGSV,1,1,3,14,74,006,42,22,61,093,42,31,37,182,42*7C


$GPRMC,000437.000,A,3959.9914,N,10500.0000,W,019.4,180.0,280510,,*1D
$GPGGA,000437.000,3959.9914,N,10500.0000,W,1,3,0.0,37.1,M,-17.1,M,,*65
$GPGSV,1,1,3,14,74,006,42,22,61,093,42,31,37,182,42*7C


$GPRMC,000437.000,A,3959.9914,N,10500.0000,W,019.4,180.0,280510,,*1D
$GPGGA,000437.000,3959.9914,N,10500.0000,W,1,3,0.0,37.1,M,-17.1,M,,*65
$GPGSV,1,1,3,14,74,006,42,22,61,093,42,31,37,182,42*7C


$GPRMC,000437.000,A,3959.9914,N,10500.0000,W,019.4,180.0,280510,,*1D
$GPGGA,000437.000,3959.9914,N,10500.0000,W,1,3,0.0,37.1,M,-17.1,M,,*65
$GPGSV,1,1,3,14,74,006,42,22,61,093,42,31,37,182,42*7C


$GPRMC,000437.000,A,3959.9914,N,10500.0000,W,019.4,180.0,280510,,*1D
$GPGGA,000437.000,3959.9914,N,10500.0000,W,1,3,0.0,37.1,M,-17.1,M,,*65
$GPGSV,1,1,3,14,74,006,42,22,61,093,42,31,37,182,42*7C


$GPRMC,000437.000,A,3959.9914,N,10500.0000,W,019.4,180.0,280510,,*1D
$GPGGA,000437.000,3959.9914,N,10500.0000,W,1,3,0.0,37.1,M,-17.1,M,,*65
$GPGSV,1,1,3,14,74,006,42,22,61,093,42,31,37,182,42*7C


$GPRMC,000437.000,A,3959.9914,N,10500.0000,W,019.4,180.0,280510,,*1D
$GPGGA,000437.000,3959.9914,N,10500.0000,W,1,3,0.0,37.1,M,-17.1,M,,*65
$GPGSV,1,1,3,14,74,006,42,22,61,093,42,31,37,182,42*7C


$GPRMC,000437.000,A,3959.9914,N,10500.0000,W,019.4,180.0,280510,,*1D
$GPGGA,000437.000,3959.9914,N,10500.0000,W,1,3,0.0,37.1,M,-17.1,M,,*65
$GPGSV,1,1,3,14,74,006,42,22,61,093,42,31,37,182,42*7C


$GPRMC,000437.000,A,3959.9914,N,10500.0000,W,019.4,180.0,280510,,*1D
$GPGGA,000437.000,3959.9914,N,10500.0000,W,1,3,0.0,37.1,M,-17.1,M,,*65
$GPGSV,1,1,3,14,74,006,42,22,61,093,42,31,37,182,42*7C


$GPRMC,000437.000,A,3959.9914,N,10500.0000,W,019.4,180.0,280510,,*1D
$GPGGA,000437.000,3959.9914,N,10500.0000,W,1,3,0.0,37.1,M,-17.1,M,,*65
$GPGSV,1,1,3,14,74,006,42,22,61,093,42,31,37,182,42*7C


$GPRMC,000437.000,A,3959.9914,N,10500.0000,W,019.4,180.0,280510,,*1D
$GPGGA,000437.000,3959.9914,N,10500.0000,W,1,3,0.0,37.1,M,-17.1,M,,*65
$GPGSV,1,1,3,14,74,006,42,22,61,093,42,31,37,182,42*7C


$GPRMC,000437.000,A,3959.9914,N,10500.0000,W,019.4,180.0,280510,,*1D
$GPGGA,000437.000,3959.9914,N,10500.0000,W,1,3,0.0,37.1,M,-17.1,M,,*65
$GPGSV,1,1,3,14,74,006,42,22,61,093,42,31,37,182,42*7C


$GPRMC,000437.000,A,3959.9914,N,10500.0000,W,019.4,180.0,280510,,*1D
$GPGGA,000437.000,3959.9914,N,10500.0000,W,1,3,0.0,37.1,M,-17.1,M,,*65
$GPGSV,1,1,3,14,74,006,42,22,61,093,42,31,37,182,42*7C


$GPRMC,000437.000,A,3959.9914,N,10500.0000,W,019.4,180.0,280510,,*1D
$GPGGA,000437.000,3959.9914,N,10500.0000,W,1,3,0.0,37.1,M,-17.1,M,,*65
$GPGSV,1,1,3,14,74,006,42,22,61,093,42,31,37,182,42*7C


$GPRMC,000437.000,A,3959.9914,N,10500.0000,W,019.4,180.0,280510,,*1D
$GPGGA,000437.000,3959.9914,N,10500.0000,W,1,3,0.0,37.1,M,-17.1,M,,*65
$GPGSV,1,1,3,14,74,006,42,22,61,093,42,31,37,182,42*7C


$GPRMC,000437.000,A,3959.9914,N,10500.0000,W,019.4,180.0,280510,,*1D
$GPGGA,000437.000,3959.9914,N,10500.0000,W,1,3,0.0,37.1,M,-17.1,M,,*65
$GPGSV,1,1,3,14,74,006,42,22,61,093,42,31,37,182,42*7C


$GPRMC,000437.000,A,3959.9914,N,10500.0000,W,019.4,180.0,280510,,*1D
$GPGGA,000437.000,3959.9914,N,10500.0000,W,1,3,0.0,37.1,M,-17.1,M,,*65
$GPGSV,1,1,3,14,74,006,42,22,61,093,42,31,37,182,42*7C


$GPRMC,000437.000,A,3959.9914,N,10500.0000,W,019.4,180.0,280510,,*1D
$GPGGA,000437.000,3959.9914,N,10500.0000,W,1,3,0.0,37.1,M,-17.1,M,,*65
$GPGSV,1,1,3,14,74,006,42,22,61,093,42,31,37,182,42*7C


$GPRMC,000437.000,A,3959.9914,N,10500.0000,W,019.4,180.0,280510,,*1D
$GPGGA,000437.000,3959.9914,N,10500.0000,W,1,3,0.0,37.1,M,-17.1,M,,*65
$GPGSV,1,1,3,14,74,006,42,22,61,093,42,31,37,182,42*7C


$GPRMC,000437.000,A,3959.9914,N,10500.0000,W,019.4,180.0,280510,,*1D
$GPGGA,000437.000,3959.9914,N,10500.0000,W,1,3,0.0,37.1,M,-17.1,M,,*65
$GPGSV,1,1,3,14,74,006,42,22,61,093,42,31,37,182,42*7C


$GPRMC,000437.000,A,3959.9914,N,10500.0000,W,019.4,180.0,280510,,*1D
$GPGGA,000437.000,3959.9914,N,10500.0000,W,1,3,0.0,37.1,M,-17.1,M,,*65
$GPGSV,1,1,3,14,74,006,42,22,61,093,42,31,37,182,42*7C


$GPRMC,000437.000,A,3959.9914,N,10500.0000,W,019.4,180.0,280510,,*1D
$GPGGA,000437.000,3959.9914,N,10500.0000,W,1,3,0.0,37.1,M,-17.1,M,,*65
$GPGSV,1,1,3,14,74,006,42,22,61,093,42,31,37,182,42*7C


$GPRMC,000437.000,A,3959.9914,N,10500.0000,W,019.4,180.0,280510,,*1D
$GPGGA,000437.000,3959.9914,N,10500.0000,W,1,3,0.0,37.1,M,-17.1,M,,*65
$GPGSV,1,1,3,14,74,006,42,22,61,093,42,31,37,182,42*7C


$GPRMC,000437.000,A,3959.9914,N,10500.0000,W,019.4,180.0,280510,,*1D
$GPGGA,000437.000,3959.9914,N,10500.0000,W,1,3,0.0,37.1,M,-17.1,M,,*65
$GPGSV,1,1,3,14,74,006,42,22,61,093,42,31,37,182,42*7C


$GPRMC,000437.000,A,3959.9914,N,10500.0000,W,019.4,180.0,280510,,*1D
$GPGGA,000437.000,3959.9914,N,10500.0000,W,1,3,0.0,37.1,M,-17.1,M,,*65
$GPGSV,1,1,3,14,74,006,42,22,61,093,42,31,37,182,42*7C


$GPRMC,000437.000,A,3959.9914,N,10500.0000,W,019.4,180.0,280510,,*1D
$GPGGA,000437.000,3959.9914,N,10500.0000,W,1,3,0.0,37.1,M,-17.1,M,,*65
$GPGSV,1,1,3,14,74,006,42,22,61,093,42,31,37,182,42*7C


$GPRMC,000437.000,A,3959.9914,N,10500.0000,W,019.4,180.0,280510,,*1D
$GPGGA,000437.000,3959.9914,N,10500.0000,W,1,3,0.0,37.1,M,-17.1,M,,*65
$GPGSV,1,1,3,14,74,006,42,22,61,093,42,31,37,182,42*7C


$GPRMC,000437.000,A,3959.9914,N,10500.0000,W,019.4,180.0,280510,,*1D
$GPGGA,000437.000,3959.9914,N,10500.0000,W,1,3,0.0,37.1,M,-17.1,M,,*65
$GPGSV,1,1,3,14,74,006,42,22,61,093,42,31,37,182,42*7C


$GPRMC,000437.000,A,3959.9914,N,10500.0000,W,019.4,180.0,280510,,*1D
$GPGGA,000437.000,3959.9914,N,10500.0000,W,1,3,0.0,37.1,M,-17.1,M,,*65
$GPGSV,1,1,3,14,74,006,42,22,61,093,42,31,37,182,42*7C


$GPRMC,000437.000,A,3959.9914,N,10500.0000,W,019.4,180.0,280510,,*1D
$GPGGA,000437.000,3959.9914,N,10500.0000,W,1,3,0.0,37.1,M,-17.1,M,,*65
$GPGSV,1,1,3,14,74,006,42,22,61,093,42,31,37,182,42*7C


$GPRMC,000437.000,A,3959.9914,N,10500.0000,W,019.4,180.0,280510,,*1D
$GPGGA,000437.000,3959.9914,N,10500.0000,W,1,3,0.0,37.1,M,-17.1,M,,*65
$GPGSV,1,1,3,14,74,006,42,22,61,093,42,31,37,182,42*7C


$GPRMC,000437.000,A,3959.9914,N,10500.0000,W,019.4,180.0,280510,,*1D
$GPGGA,000437.000,3959.9914,N,10500.0000,W,1,3,0.0,37.1,M,-17.1,M,,*65
$GPGSV,1,1,3,14,74,006,42,22,61,093,42,31,37,182,42*7C


$GPRMC,000437.000,A,3959.9914,N,10500.0000,W,019.4,180.0,280510,,*1D
$GPGGA,000437.000,3959.9914,N,10500.0000,W,1,3,0.0,37.1,M,-17.1,M,,*65
$GPGSV,1,1,3,14,74,006,42,22,61,093,42,31,37,182,42*7C


$GPRMC,000437.000,A,3959.9914,N,10500.0000,W,019.4,180.0,280510,,*1D
$GPGGA,000437.000,3959.9914,N,10500.0000,W,1,3,0.0,37.1,M,-17.1,M,,*65
$GPGSV,1,1,3,14,74,006,42,22,61,093,42,31,37,182,42*7C


$GPRMC,000437.000,A,3959.9914,N,10500.0000,W,019.4,180.0,280510,,*1D
$GPGGA,000437.000,3959.9914,N,10500.0000,W,1,3,0.0,37.1,M,-17.1,M,,*65
$GPGSV,1,1,3,14,74,006,42,22,61,093,42,31,37,182,42*7C


$GPRMC,000437.000,A,3959.9914,N,10500.0000,W,019.4,180.0,280510,,*1D
$GPGGA,000437.000,3959.9914,N,10500.0000,W,1,3,0.0,37.1,M,-17.1,M,,*65
$GPGSV,1,1,3,14,74,006,42,22,61,093,42,31,37,182,42*7C


$GPRMC,000437.000,A,3959.9914,N,10500.0000,W,019.4,180.0,280510,,*1D
$GPGGA,000437.000,3959.9914,N,10500.0000,W,1,3,0.0,37.1,M,-17.1,M,,*65
$GPGSV,1,1,3,14,74,006,42,22,61,093,42,31,37,182,42*7C


$GPRMC,000437.000,A,3959.9914,N,10500.0000,W,019.4,180.0,280510,,*1D
$GPGGA,000437.000,3959.9914,N,10500.0000,W,1,3,0.0,37.1,M,-17.1,M,,*65
$GPGSV,1,1,3,14,74,006,42,22,61,093,42,31,37,182,42*7C


$GPRMC,000437.000,A,3959.9914,N,10500.0000,W,019.4,180.0,280510,,*1D
$GPGGA,000437.000,3959.9914,N,10500.0000,W,1,3,0.0,37.1,M,-17.1,M,,*65
$GPGSV,1,1,3,14,74,006,42,22,61,093,42,31,37,182,42*7C


$GPRMC,000437.000,A,3959.9914,N,10500.0000,W,019.4,180.0,280510,,*1D
$GPGGA,000437.000,3959.9914,N,10500.0000,W,1,3,0.0,37.1,M,-17.1,M,,*65
$GPGSV,1,1,3,14,74,006,42,22,61,093,42,31,37,182,42*7C


$GPRMC,000438.000,A,3959.9860,N,10500.0000,W,019.4,180.0,280510,,*10
$GPGGA,000438.000,3959.9860,N,10500.0000,W,1,3,0.0,37.1,M,-17.1,M,,*68
$GPGSV,1,1,3,14,74,006,42,22,61,093,42,31,37,182,42*7C


$GPRMC,000438.000,A,3959.9860,N,10500.0000,W,019.4,180.0,280510,,*10
$GPGGA,000438.000,3959.9860,N,10500.0000,W,1,3,0.0,37.1,M,-17.1,M,,*68
$GPGSV,1,1,3,14,74,006,42,22,61,093,42,31,37,182,42*7C


$GPRMC,000438.000,A,3959.9860,N,10500.0000,W,019.4,180.0,280510,,*10
$GPGGA,000438.000,3959.9860,N,10500.0000,W,1,3,0.0,37.1,M,-17.1,M,,*68
$GPGSV,1,1,3,14,74,006,42,22,61,093,42,31,37,182,42*7C


$GPRMC,000438.000,A,3959.9860,N,10500.0000,W,019.4,180.0,280510,,*10
$GPGGA,000438.000,3959.9860,N,10500.0000,W,1,3,0.0,37.1,M,-17.1,M,,*68
$GPGSV,1,1,3,14,74,006,42,22,61,093,42,31,37,182,42*7C


$GPRMC,000438.000,A,3959.9860,N,10500.0000,W,019.4,180.0,280510,,*10
$GPGGA,000438.000,3959.9860,N,10500.0000,W,1,3,0.0,37.1,M,-17.1,M,,*68
$GPGSV,1,1,3,14,74,006,42,22,61,093,42,31,37,182,42*7C


$GPRMC,000438.000,A,3959.9860,N,10500.0000,W,019.4,180.0,280510,,*10
$GPGGA,000438.000,3959.9860,N,10500.0000,W,1,3,0.0,37.1,M,-17.1,M,,*68
$GPGSV,1,1,3,14,74,006,42,22,61,093,42,31,37,182,42*7C


$GPRMC,000438.000,A,3959.9860,N,10500.0000,W,019.4,180.0,280510,,*10
$GPGGA,000438.000,3959.9860,N,10500.0000,W,1,3,0.0,37.1,M,-17.1,M,,*68
$GPGSV,1,1,3,14,74,006,42,22,61,093,42,31,37,182,42*7C


$GPRMC,000438.000,A,3959.9860,N,10500.0000,W,019.4,180.0,280510,,*10
$GPGGA,000438.000,3959.9860,N,10500.0000,W,1,3,0.0,37.1,M,-17.1,M,,*68
$GPGSV,1,1,3,14,74,006,42,22,61,093,42,31,37,182,42*7C


$GPRMC,000438.000,A,3959.9860,N,10500.0000,W,019.4,180.0,280510,,*10
$GPGGA,000438.000,3959.9860,N,10500.0000,W,1,3,0.0,37.1,M,-17.1,M,,*68
$GPGSV,1,1,3,14,74,006,42,22,61,093,42,31,37,182,42*7C


$GPRMC,000438.000,A,3959.9860,N,10500.0000,W,019.4,180.0,280510,,*10
$GPGGA,000438.000,3959.9860,N,10500.0000,W,1,3,0.0,37.1,M,-17.1,M,,*68
$GPGSV,1,1,3,14,74,006,42,22,61,093,42,31,37,182,42*7C


$GPRMC,000438.000,A,3959.9860,N,10500.0000,W,019.4,180.0,280510,,*10
$GPGGA,000438.000,3959.9860,N,10500.0000,W,1,3,0.0,37.1,M,-17.1,M,,*68
$GPGSV,1,1,3,14,74,006,42,22,61,093,42,31,37,182,42*7C


$GPRMC,000438.000,A,3959.9860,N,10500.0000,W,019.4,180.0,280510,,*10
$GPGGA,000438.000,3959.9860,N,10500.0000,W,1,3,0.0,37.1,M,-17.1,M,,*68
$GPGSV,1,1,3,14,74,006,42,22,61,093,42,31,37,182,42*7C


$GPRMC,000438.000,A,3959.9860,N,10500.0000,W,019.4,180.0,280510,,*10
$GPGGA,000438.000,3959.9860,N,10500.0000,W,1,3,0.0,37.1,M,-17.1,M,,*68
$GPGSV,1,1,3,14,74,006,42,22,61,093,42,31,37,182,42*7C


$GPRMC,000438.000,A,3959.9860,N,10500.0000,W,019.4,180.0,280510,,*10
$GPGGA,000438.000,3959.9860,N,10500.0000,W,1,3,0.0,37.1,M,-17.1,M,,*68
$GPGSV,1,1,3,14,74,006,42,22,61,093,42,31,37,182,42*7C


$GPRMC,000438.000,A,3959.9860,N,10500.0000,W,019.4,180.0,280510,,*10
$GPGGA,000438.000,3959.9860,N,10500.0000,W,1,3,0.0,37.1,M,-17.1,M,,*68
$GPGSV,1,1,3,14,74,006,42,22,61,093,42,31,37,182,42*7C


$GPRMC,000438.000,A,3959.9860,N,10500.0000,W,019.4,180.0,280510,,*10
$GPGGA,000438.000,3959.9860,N,10500.0000,W,1,3,0.0,37.1,M,-17.1,M,,*68
$GPGSV,1,1,3,14,74,006,42,22,61,093,42,31,37,182,42*7C


$GPRMC,000438.000,A,3959.9860,N,10500.0000,W,019.4,180.0,280510,,*10
$GPGGA,000438.000,3959.9860,N,10500.0000,W,1,3,0.0,37.1,M,-17.1,M,,*68
$GPGSV,1,1,3,14,74,006,42,22,61,093,42,31,37,182,42*7C


$GPRMC,000438.000,A,3959.9860,N,10500.0000,W,019.4,180.0,280510,,*10
$GPGGA,000438.000,3959.9860,N,10500.0000,W,1,3,0.0,37.1,M,-17.1,M,,*68
$GPGSV,1,1,3,14,74,006,42,22,61,093,42,31,37,182,42*7C


$GPRMC,000438.000,A,3959.9860,N,10500.0000,W,019.4,180.0,280510,,*10
$GPGGA,000438.000,3959.9860,N,10500.0000,W,1,3,0.0,37.1,M,-17.1,M,,*68
$GPGSV,1,1,3,14,74,006,42,22,61,093,42,31,37,182,42*7C


$GPRMC,000438.000,A,3959.9860,N,10500.0000,W,019.4,180.0,280510,,*10
$GPGGA,000438.000,3959.9860,N,10500.0000,W,1,3,0.0,37.1,M,-17.1,M,,*68
$GPGSV,1,1,3,14,74,006,42,22,61,093,42,31,37,182,42*7C


$GPRMC,000438.000,A,3959.9860,N,10500.0000,W,019.4,180.0,280510,,*10
$GPGGA,000438.000,3959.9860,N,10500.0000,W,1,3,0.0,37.1,M,-17.1,M,,*68
$GPGSV,1,1,3,14,74,006,42,22,61,093,42,31,37,182,42*7C


$GPRMC,000438.000,A,3959.9860,N,10500.0000,W,019.4,180.0,280510,,*10
$GPGGA,000438.000,3959.9860,N,10500.0000,W,1,3,0.0,37.1,M,-17.1,M,,*68
$GPGSV,1,1,3,14,74,006,42,22,61,093,42,31,37,182,42*7C


$GPRMC,000438.000,A,3959.9860,N,10500.0000,W,019.4,180.0,280510,,*10
$GPGGA,000438.000,3959.9860,N,10500.0000,W,1,3,0.0,37.1,M,-17.1,M,,*68
$GPGSV,1,1,3,14,74,006,42,22,61,093,42,31,37,182,42*7C


$GPRMC,000438.000,A,3959.9860,N,10500.0000,W,019.4,180.0,280510,,*10
$GPGGA,000438.000,3959.9860,N,10500.0000,W,1,3,0.0,37.1,M,-17.1,M,,*68
$GPGSV,1,1,3,14,74,006,42,22,61,093,42,31,37,182,42*7C


$GPRMC,000438.000,A,3959.9860,N,10500.0000,W,019.4,180.0,280510,,*10
$GPGGA,000438.000,3959.9860,N,10500.0000,W,1,3,0.0,37.1,M,-17.1,M,,*68
$GPGSV,1,1,3,14,74,006,42,22,61,093,42,31,37,182,42*7C


$GPRMC,000438.000,A,3959.9860,N,10500.0000,W,019.4,180.0,280510,,*10
$GPGGA,000438.000,3959.9860,N,10500.0000,W,1,3,0.0,37.1,M,-17.1,M,,*68
$GPGSV,1,1,3,14,74,006,42,22,61,093,42,31,37,182,42*7C


$GPRMC,000438.000,A,3959.9860,N,10500.0000,W,019.4,180.0,280510,,*10
$GPGGA,000438.000,3959.9860,N,10500.0000,W,1,3,0.0,37.1,M,-17.1,M,,*68
$GPGSV,1,1,3,14,74,006,42,22,61,093,42,31,37,182,42*7C


$GPRMC,000438.000,A,3959.9860,N,10500.0000,W,019.4,180.0,280510,,*10
$GPGGA,000438.000,3959.9860,N,10500.0000,W,1,3,0.0,37.1,M,-17.1,M,,*68
$GPGSV,1,1,3,14,74,006,42,22,61,093,42,31,37,182,42*7C


$GPRMC,000438.000,A,3959.9860,N,10500.0000,W,019.4,180.0,280510,,*10
$GPGGA,000438.000,3959.9860,N,10500.0000,W,1,3,0.0,37.1,M,-17.1,M,,*68
$GPGSV,1,1,3,14,74,006,42,22,61,093,42,31,37,182,42*7C


$GPRMC,000438.000,A,3959.9860,N,10500.0000,W,019.4,180.0,280510,,*10
$GPGGA,000438.000,3959.9860,N,10500.0000,W,1,3,0.0,37.1,M,-17.1,M,,*68
$GPGSV,1,1,3,14,74,006,42,22,61,093,42,31,37,182,42*7C


$GPRMC,000438.000,A,3959.9860,N,10500.0000,W,019.4,180.0,280510,,*10
$GPGGA,000438.000,3959.9860,N,10500.0000,W,1,3,0.0,37.1,M,-17.1,M,,*68
$GPGSV,1,1,3,14,74,006,42,22,61,093,42,31,37,182,42*7C


$GPRMC,000438.000,A,3959.9860,N,10500.0000,W,019.4,180.0,280510,,*10
$GPGGA,000438.000,3959.9860,N,10500.0000,W,1,3,0.0,37.1,M,-17.1,M,,*68
$GPGSV,1,1,3,14,74,006,42,22,61,093,42,31,37,182,42*7C


$GPRMC,000438.000,A,3959.9860,N,10500.0000,W,019.4,180.0,280510,,*10
$GPGGA,000438.000,3959.9860,N,10500.0000,W,1,3,0.0,37.1,M,-17.1,M,,*68
$GPGSV,1,1,3,14,74,006,42,22,61,093,42,31,37,182,42*7C


$GPRMC,000438.000,A,3959.9860,N,10500.0000,W,019.4,180.0,280510,,*10
$GPGGA,000438.000,3959.9860,N,10500.0000,W,1,3,0.0,37.1,M,-17.1,M,,*68
$GPGSV,1,1,3,14,74,006,42,22,61,093,42,31,37,182,42*7C


$GPRMC,000438.000,A,3959.9860,N,10500.0000,W,019.4,180.0,280510,,*10
$GPGGA,000438.000,3959.9860,N,10500.0000,W,1,3,0.0,37.1,M,-17.1,M,,*68
$GPGSV,1,1,3,14,74,006,42,22,61,093,42,31,37,182,42*7C


$GPRMC,000438.000,A,3959.9860,N,10500.0000,W,019.4,180.0,280510,,*10
$GPGGA,000438.000,3959.9860,N,10500.0000,W,1,3,0.0,37.1,M,-17.1,M,,*68
$GPGSV,1,1,3,14,74,006,42,22,61,093,42,31,37,182,42*7C


$GPRMC,000438.000,A,3959.9860,N,10500.0000,W,019.4,180.0,280510,,*10
$GPGGA,000438.000,3959.9860,N,10500.0000,W,1,3,0.0,37.1,M,-17.1,M,,*68
$GPGSV,1,1,3,14,74,006,42,22,61,093,42,31,37,182,42*7C


$GPRMC,000438.000,A,3959.9860,N,10500.0000,W,019.4,180.0,280510,,*10
$GPGGA,000438.000,3959.9860,N,10500.0000,W,1,3,0.0,37.1,M,-17.1,M,,*68
$GPGSV,1,1,3,14,74,006,42,22,61,093,42,31,37,182,42*7C


$GPRMC,000438.000,A,3959.9860,N,10500.0000,W,019.4,180.0,280510,,*10
$GPGGA,000438.000,3959.9860,N,10500.0000,W,1,3,0.0,37.1,M,-17.1,M,,*68
$GPGSV,1,1,3,14,74,006,42,22,61,093,42,31,37,182,42*7C


$GPRMC,000438.000,A,3959.9860,N,10500.0000,W,019.4,180.0,280510,,*10
$GPGGA,000438.000,3959.9860,N,10500.0000,W,1,3,0.0,37.1,M,-17.1,M,,*68
$GPGSV,1,1,3,14,74,006,42,22,61,093,42,31,37,182,42*7C


$GPRMC,000438.000,A,3959.9860,N,10500.0000,W,019.4,180.0,280510,,*10
$GPGGA,000438.000,3959.9860,N,10500.0000,W,1,3,0.0,37.1,M,-17.1,M,,*68
$GPGSV,1,1,3,14,74,006,42,22,61,093,42,31,37,182,42*7C


$GPRMC,000438.000,A,3959.9860,N,10500.0000,W,019.4,180.0,280510,,*10
$GPGGA,000438.000,3959.9860,N,10500.0000,W,1,3,0.0,37.1,M,-17.1,M,,*68
$GPGSV,1,1,3,14,74,006,42,22,61,093,42,31,37,182,42*7C


$GPRMC,000438.000,A,3959.9860,N,10500.0000,W,019.4,180.0,280510,,*10
$GPGGA,000438.000,3959.9860,N,10500.0000,W,1,3,0.0,37.1,M,-17.1,M,,*68
$GPGSV,1,1,3,14,74,006,42,22,61,093,42,31,37,182,42*7C


$GPRMC,000438.000,A,3959.9860,N,10500.0000,W,019.4,180.0,280510,,*10
$GPGGA,000438.000,3959.9860,N,10500.0000,W,1,3,0.0,37.1,M,-17.1,M,,*68
$GPGSV,1,1,3,14,74,006,42,22,61,093,42,31,37,182,42*7C


$GPRMC,000438.000,A,3959.9860,N,10500.0000,W,019.4,180.0,280510,,*10
$GPGGA,000438.000,3959.9860,N,10500.0000,W,1,3,0.0,37.1,M,-17.1,M,,*68
$GPGSV,1,1,3,14,74,006,42,22,61,093,42,31,37,182,42*7C


$GPRMC,000438.000,A,3959.9860,N,10500.0000,W,019.4,180.0,280510,,*10
$GPGGA,000438.000,3959.9860,N,10500.0000,W,1,3,0.0,37.1,M,-17.1,M,,*68
$GPGSV,1,1,3,14,74,006,42,22,61,093,42,31,37,182,42*7C


$GPRMC,000438.000,A,3959.9860,N,10500.0000,W,019.4,180.0,280510,,*10
$GPGGA,000438.000,3959.9860,N,10500.0000,W,1,3,0.0,37.1,M,-17.1,M,,*68
$GPGSV,1,1,3,14,74,006,42,22,61,093,42,31,37,182,42*7C


$GPRMC,000438.000,A,3959.9860,N,10500.0000,W,019.4,180.0,280510,,*10
$GPGGA,000438.000,3959.9860,N,10500.0000,W,1,3,0.0,37.1,M,-17.1,M,,*68
$GPGSV,1,1,3,14,74,006,42,22,61,093,42,31,37,182,42*7C


$GPRMC,000438.000,A,3959.9860,N,10500.0000,W,019.4,180.0,280510,,*10
$GPGGA,000438.000,3959.9860,N,10500.0000,W,1,3,0.0,37.1,M,-17.1,M,,*68
$GPGSV,1,1,3,14,74,006,42,22,61,093,42,31,37,182,42*7C


$GPRMC,000438.000,A,3959.9860,N,10500.0000,W,019.4,180.0,280510,,*10
$GPGGA,000438.000,3959.9860,N,10500.0000,W,1,3,0.0,37.1,M,-17.1,M,,*68
$GPGSV,1,1,3,14,74,006,42,22,61,093,42,31,37,182,42*7C


$GPRMC,000439.000,A,3959.9805,N,10500.0000,W,019.4,180.0,280510,,*12
$GPGGA,000439.000,3959.9805,N,10500.0000,W,1,3,0.0,37.1,M,-17.1,M,,*6A
$GPGSV,1,1,3,14,74,006,42,22,61,093,42,31,37,182,42*7C


$GPRMC,000439.000,A,3959.9805,N,10500.0000,W,019.4,180.0,280510,,*12
$GPGGA,000439.000,3959.9805,N,10500.0000,W,1,3,0.0,37.1,M,-17.1,M,,*6A
$GPGSV,1,1,3,14,74,006,42,22,61,093,42,31,37,182,42*7C


$GPRMC,000439.000,A,3959.9805,N,10500.0000,W,019.4,180.0,280510,,*12
$GPGGA,000439.000,3959.9805,N,10500.0000,W,1,3,0.0,37.1,M,-17.1,M,,*6A
$GPGSV,1,1,3,14,74,006,42,22,61,093,42,31,37,182,42*7C


$GPRMC,000439.000,A,3959.9805,N,10500.0000,W,019.4,180.0,280510,,*12
$GPGGA,000439.000,3959.9805,N,10500.0000,W,1,3,0.0,37.1,M,-17.1,M,,*6A
$GPGSV,1,1,3,14,74,006,42,22,61,093,42,31,37,182,42*7C


$GPRMC,000439.000,A,3959.9805,N,10500.0000,W,019.4,180.0,280510,,*12
$GPGGA,000439.000,3959.9805,N,10500.0000,W,1,3,0.0,37.1,M,-17.1,M,,*6A
$GPGSV,1,1,3,14,74,006,42,22,61,093,42,31,37,182,42*7C


$GPRMC,000439.000,A,3959.9805,N,10500.0000,W,019.4,180.0,280510,,*12
$GPGGA,000439.000,3959.9805,N,10500.0000,W,1,3,0.0,37.1,M,-17.1,M,,*6A
$GPGSV,1,1,3,14,74,006,42,22,61,093,42,31,37,182,42*7C


$GPRMC,000439.000,A,3959.9805,N,10500.0000,W,019.4,180.0,280510,,*12
$GPGGA,000439.000,3959.9805,N,10500.0000,W,1,3,0.0,37.1,M,-17.1,M,,*6A
$GPGSV,1,1,3,14,74,006,42,22,61,093,42,31,37,182,42*7C


$GPRMC,000439.000,A,3959.9805,N,10500.0000,W,019.4,180.0,280510,,*12
$GPGGA,000439.000,3959.9805,N,10500.0000,W,1,3,0.0,37.1,M,-17.1,M,,*6A
$GPGSV,1,1,3,14,74,006,42,22,61,093,42,31,37,182,42*7C


$GPRMC,000439.000,A,3959.9805,N,10500.0000,W,019.4,180.0,280510,,*12
$GPGGA,000439.000,3959.9805,N,10500.0000,W,1,3,0.0,37.1,M,-17.1,M,,*6A
$GPGSV,1,1,3,14,74,006,42,22,61,093,42,31,37,182,42*7C


$GPRMC,000439.000,A,3959.9805,N,10500.0000,W,019.4,180.0,280510,,*12
$GPGGA,000439.000,3959.9805,N,10500.0000,W,1,3,0.0,37.1,M,-17.1,M,,*6A
$GPGSV,1,1,3,14,74,006,42,22,61,093,42,31,37,182,42*7C


$GPRMC,000439.000,A,3959.9805,N,10500.0000,W,019.4,180.0,280510,,*12
$GPGGA,000439.000,3959.9805,N,10500.0000,W,1,3,0.0,37.1,M,-17.1,M,,*6A
$GPGSV,1,1,3,14,74,006,42,22,61,093,42,31,37,182,42*7C


$GPRMC,000439.000,A,3959.9805,N,10500.0000,W,019.4,180.0,280510,,*12
$GPGGA,000439.000,3959.9805,N,10500.0000,W,1,3,0.0,37.1,M,-17.1,M,,*6A
$GPGSV,1,1,3,14,74,006,42,22,61,093,42,31,37,182,42*7C


$GPRMC,000439.000,A,3959.9805,N,10500.0000,W,019.4,180.0,280510,,*12
$GPGGA,000439.000,3959.9805,N,10500.0000,W,1,3,0.0,37.1,M,-17.1,M,,*6A
$GPGSV,1,1,3,14,74,006,42,22,61,093,42,31,37,182,42*7C


$GPRMC,000439.000,A,3959.9805,N,10500.0000,W,019.4,180.0,280510,,*12
$GPGGA,000439.000,3959.9805,N,10500.0000,W,1,3,0.0,37.1,M,-17.1,M,,*6A
$GPGSV,1,1,3,14,74,006,42,22,61,093,42,31,37,182,42*7C


$GPRMC,000439.000,A,3959.9805,N,10500.0000,W,019.4,180.0,280510,,*12
$GPGGA,000439.000,3959.9805,N,10500.0000,W,1,3,0.0,37.1,M,-17.1,M,,*6A
$GPGSV,1,1,3,14,74,006,42,22,61,093,42,31,37,182,42*7C


$GPRMC,000439.000,A,3959.9805,N,10500.0000,W,019.4,180.0,280510,,*12
$GPGGA,000439.000,3959.9805,N,10500.0000,W,1,3,0.0,37.1,M,-17.1,M,,*6A
$GPGSV,1,1,3,14,74,006,42,22,61,093,42,31,37,182,42*7C


$GPRMC,000439.000,A,3959.9805,N,10500.0000,W,019.4,180.0,280510,,*12
$GPGGA,000439.000,3959.9805,N,10500.0000,W,1,3,0.0,37.1,M,-17.1,M,,*6A
$GPGSV,1,1,3,14,74,006,42,22,61,093,42,31,37,182,42*7C


$GPRMC,000439.000,A,3959.9805,N,10500.0000,W,019.4,180.0,280510,,*12
$GPGGA,000439.000,3959.9805,N,10500.0000,W,1,3,0.0,37.1,M,-17.1,M,,*6A
$GPGSV,1,1,3,14,74,006,42,22,61,093,42,31,37,182,42*7C


$GPRMC,000439.000,A,3959.9805,N,10500.0000,W,019.4,180.0,280510,,*12
$GPGGA,000439.000,3959.9805,N,10500.0000,W,1,3,0.0,37.1,M,-17.1,M,,*6A
$GPGSV,1,1,3,14,74,006,42,22,61,093,42,31,37,182,42*7C


$GPRMC,000439.000,A,3959.9805,N,10500.0000,W,019.4,180.0,280510,,*12
$GPGGA,000439.000,3959.9805,N,10500.0000,W,1,3,0.0,37.1,M,-17.1,M,,*6A
$GPGSV,1,1,3,14,74,006,42,22,61,093,42,31,37,182,42*7C


$GPRMC,000439.000,A,3959.9805,N,10500.0000,W,019.4,180.0,280510,,*12
$GPGGA,000439.000,3959.9805,N,10500.0000,W,1,3,0.0,37.1,M,-17.1,M,,*6A
$GPGSV,1,1,3,14,74,006,42,22,61,093,42,31,37,182,42*7C


$GPRMC,000439.000,A,3959.9805,N,10500.0000,W,019.4,180.0,280510,,*12
$GPGGA,000439.000,3959.9805,N,10500.0000,W,1,3,0.0,37.1,M,-17.1,M,,*6A
$GPGSV,1,1,3,14,74,006,42,22,61,093,42,31,37,182,42*7C


$GPRMC,000439.000,A,3959.9805,N,10500.0000,W,019.4,180.0,280510,,*12
$GPGGA,000439.000,3959.9805,N,10500.0000,W,1,3,0.0,37.1,M,-17.1,M,,*6A
$GPGSV,1,1,3,14,74,006,42,22,61,093,42,31,37,182,42*7C


$GPRMC,000439.000,A,3959.9805,N,10500.0000,W,019.4,180.0,280510,,*12
$GPGGA,000439.000,3959.9805,N,10500.0000,W,1,3,0.0,37.1,M,-17.1,M,,*6A
$GPGSV,1,1,3,14,74,006,42,22,61,093,42,31,37,182,42*7C


$GPRMC,000439.000,A,3959.9805,N,10500.0000,W,019.4,180.0,280510,,*12
$GPGGA,000439.000,3959.9805,N,10500.0000,W,1,3,0.0,37.1,M,-17.1,M,,*6A
$GPGSV,1,1,3,14,74,006,42,22,61,093,42,31,37,182,42*7C


$GPRMC,000439.000,A,3959.9805,N,10500.0000,W,019.4,180.0,280510,,*12
$GPGGA,000439.000,3959.9805,N,10500.0000,W,1,3,0.0,37.1,M,-17.1,M,,*6A
$GPGSV,1,1,3,14,74,006,42,22,61,093,42,31,37,182,42*7C


$GPRMC,000439.000,A,3959.9805,N,10500.0000,W,019.4,180.0,280510,,*12
$GPGGA,000439.000,3959.9805,N,10500.0000,W,1,3,0.0,37.1,M,-17.1,M,,*6A
$GPGSV,1,1,3,14,74,006,42,22,61,093,42,31,37,182,42*7C


$GPRMC,000439.000,A,3959.9805,N,10500.0000,W,019.4,180.0,280510,,*12
$GPGGA,000439.000,3959.9805,N,10500.0000,W,1,3,0.0,37.1,M,-17.1,M,,*6A
$GPGSV,1,1,3,14,74,006,42,22,61,093,42,31,37,182,42*7C


$GPRMC,000439.000,A,3959.9805,N,10500.0000,W,019.4,180.0,280510,,*12
$GPGGA,000439.000,3959.9805,N,10500.0000,W,1,3,0.0,37.1,M,-17.1,M,,*6A
$GPGSV,1,1,3,14,74,006,42,22,61,093,42,31,37,182,42*7C


$GPRMC,000439.000,A,3959.9805,N,10500.0000,W,019.4,180.0,280510,,*12
$GPGGA,000439.000,3959.9805,N,10500.0000,W,1,3,0.0,37.1,M,-17.1,M,,*6A
$GPGSV,1,1,3,14,74,006,42,22,61,093,42,31,37,182,42*7C


$GPRMC,000439.000,A,3959.9805,N,10500.0000,W,019.4,180.0,280510,,*12
$GPGGA,000439.000,3959.9805,N,10500.0000,W,1,3,0.0,37.1,M,-17.1,M,,*6A
$GPGSV,1,1,3,14,74,006,42,22,61,093,42,31,37,182,42*7C


$GPRMC,000439.000,A,3959.9805,N,10500.0000,W,019.4,180.0,280510,,*12
$GPGGA,000439.000,3959.9805,N,10500.0000,W,1,3,0.0,37.1,M,-17.1,M,,*6A
$GPGSV,1,1,3,14,74,006,42,22,61,093,42,31,37,182,42*7C


$GPRMC,000439.000,A,3959.9805,N,10500.0000,W,019.4,180.0,280510,,*12
$GPGGA,000439.000,3959.9805,N,10500.0000,W,1,3,0.0,37.1,M,-17.1,M,,*6A
$GPGSV,1,1,3,14,74,006,42,22,61,093,42,31,37,182,42*7C


$GPRMC,000439.000,A,3959.9805,N,10500.0000,W,019.4,180.0,280510,,*12
$GPGGA,000439.000,3959.9805,N,10500.0000,W,1,3,0.0,37.1,M,-17.1,M,,*6A
$GPGSV,1,1,3,14,74,006,42,22,61,093,42,31,37,182,42*7C


$GPRMC,000439.000,A,3959.9805,N,10500.0000,W,019.4,180.0,280510,,*12
$GPGGA,000439.000,3959.9805,N,10500.0000,W,1,3,0.0,37.1,M,-17.1,M,,*6A
$GPGSV,1,1,3,14,74,006,42,22,61,093,42,31,37,182,42*7C


$GPRMC,000439.000,A,3959.9805,N,10500.0000,W,019.4,180.0,280510,,*12
$GPGGA,000439.000,3959.9805,N,10500.0000,W,1,3,0.0,37.1,M,-17.1,M,,*6A
$GPGSV,1,1,3,14,74,006,42,22,61,093,42,31,37,182,42*7C


$GPRMC,000439.000,A,3959.9805,N,10500.0000,W,019.4,180.0,280510,,*12
$GPGGA,000439.000,3959.9805,N,10500.0000,W,1,3,0.0,37.1,M,-17.1,M,,*6A
$GPGSV,1,1,3,14,74,006,42,22,61,093,42,31,37,182,42*7C


$GPRMC,000439.000,A,3959.9805,N,10500.0000,W,019.4,180.0,280510,,*12
$GPGGA,000439.000,3959.9805,N,10500.0000,W,1,3,0.0,37.1,M,-17.1,M,,*6A
$GPGSV,1,1,3,14,74,006,42,22,61,093,42,31,37,182,42*7C


$GPRMC,000439.000,A,3959.9805,N,10500.0000,W,019.4,180.0,280510,,*12
$GPGGA,000439.000,3959.9805,N,10500.0000,W,1,3,0.0,37.1,M,-17.1,M,,*6A
$GPGSV,1,1,3,14,74,006,42,22,61,093,42,31,37,182,42*7C


$GPRMC,000439.000,A,3959.9805,N,10500.0000,W,019.4,180.0,280510,,*12
$GPGGA,000439.000,3959.9805,N,10500.0000,W,1,3,0.0,37.1,M,-17.1,M,,*6A
$GPGSV,1,1,3,14,74,006,42,22,61,093,42,31,37,182,42*7C


$GPRMC,000439.000,A,3959.9805,N,10500.0000,W,019.4,180.0,280510,,*12
$GPGGA,000439.000,3959.9805,N,10500.0000,W,1,3,0.0,37.1,M,-17.1,M,,*6A
$GPGSV,1,1,3,14,74,006,42,22,61,093,42,31,37,182,42*7C


$GPRMC,000439.000,A,3959.9805,N,10500.0000,W,019.4,180.0,280510,,*12
$GPGGA,000439.000,3959.9805,N,10500.0000,W,1,3,0.0,37.1,M,-17.1,M,,*6A
$GPGSV,1,1,3,14,74,006,42,22,61,093,42,31,37,182,42*7C


$GPRMC,000439.000,A,3959.9805,N,10500.0000,W,019.4,180.0,280510,,*12
$GPGGA,000439.000,3959.9805,N,10500.0000,W,1,3,0.0,37.1,M,-17.1,M,,*6A
$GPGSV,1,1,3,14,74,006,42,22,61,093,42,31,37,182,42*7C


$GPRMC,000439.000,A,3959.9805,N,10500.0000,W,019.4,180.0,280510,,*12
$GPGGA,000439.000,3959.9805,N,10500.0000,W,1,3,0.0,37.1,M,-17.1,M,,*6A
$GPGSV,1,1,3,14,74,006,42,22,61,093,42,31,37,182,42*7C


$GPRMC,000439.000,A,3959.9805,N,10500.0000,W,019.4,180.0,280510,,*12
$GPGGA,000439.000,3959.9805,N,10500.0000,W,1,3,0.0,37.1,M,-17.1,M,,*6A
$GPGSV,1,1,3,14,74,006,42,22,61,093,42,31,37,182,42*7C


$GPRMC,000439.000,A,3959.9805,N,10500.0000,W,019.4,180.0,280510,,*12
$GPGGA,000439.000,3959.9805,N,10500.0000,W,1,3,0.0,37.1,M,-17.1,M,,*6A
$GPGSV,1,1,3,14,74,006,42,22,61,093,42,31,37,182,42*7C


$GPRMC,000439.000,A,3959.9805,N,10500.0000,W,019.4,180.0,280510,,*12
$GPGGA,000439.000,3959.9805,N,10500.0000,W,1,3,0.0,37.1,M,-17.1,M,,*6A
$GPGSV,1,1,3,14,74,006,42,22,61,093,42,31,37,182,42*7C


$GPRMC,000439.000,A,3959.9805,N,10500.0000,W,019.4,180.0,280510,,*12
$GPGGA,000439.000,3959.9805,N,10500.0000,W,1,3,0.0,37.1,M,-17.1,M,,*6A
$GPGSV,1,1,3,14,74,006,42,22,61,093,42,31,37,182,42*7C


$GPRMC,000439.000,A,3959.9805,N,10500.0000,W,019.4,180.0,280510,,*12
$GPGGA,000439.000,3959.9805,N,10500.0000,W,1,3,0.0,37.1,M,-17.1,M,,*6A
$GPGSV,1,1,3,14,74,006,42,22,61,093,42,31,37,182,42*7C


$GPRMC,000439.000,A,3959.9805,N,10500.0000,W,019.4,180.0,280510,,*12
$GPGGA,000439.000,3959.9805,N,10500.0000,W,1,3,0.0,37.1,M,-17.1,M,,*6A
$GPGSV,1,1,3,14,74,006,42,22,61,093,42,31,37,182,42*7C


$GPRMC,000439.000,A,3959.9805,N,10500.0000,W,019.4,180.0,280510,,*12
$GPGGA,000439.000,3959.9805,N,10500.0000,W,1,3,0.0,37.1,M,-17.1,M,,*6A
$GPGSV,1,1,3,14,74,006,42,22,61,093,42,31,37,182,42*7C


$GPRMC,000440.000,A,3959.9751,N,10500.0000,W,019.4,180.0,280510,,*12
$GPGGA,000440.000,3959.9751,N,10500.0000,W,1,3,0.0,37.1,M,-17.1,M,,*6A
$GPGSV,1,1,3,14,74,006,42,22,61,093,42,31,37,182,42*7C


$GPRMC,000440.000,A,3959.9751,N,10500.0000,W,019.4,180.0,280510,,*12
$GPGGA,000440.000,3959.9751,N,10500.0000,W,1,3,0.0,37.1,M,-17.1,M,,*6A
$GPGSV,1,1,3,14,74,006,42,22,61,093,42,31,37,182,42*7C


$GPRMC,000440.000,A,3959.9751,N,10500.0000,W,019.4,180.0,280510,,*12
$GPGGA,000440.000,3959.9751,N,10500.0000,W,1,3,0.0,37.1,M,-17.1,M,,*6A
$GPGSV,1,1,3,14,74,006,42,22,61,093,42,31,37,182,42*7C


$GPRMC,000440.000,A,3959.9751,N,10500.0000,W,019.4,180.0,280510,,*12
$GPGGA,000440.000,3959.9751,N,10500.0000,W,1,3,0.0,37.1,M,-17.1,M,,*6A
$GPGSV,1,1,3,14,74,006,42,22,61,093,42,31,37,182,42*7C


$GPRMC,000440.000,A,3959.9751,N,10500.0000,W,019.4,180.0,280510,,*12
$GPGGA,000440.000,3959.9751,N,10500.0000,W,1,3,0.0,37.1,M,-17.1,M,,*6A
$GPGSV,1,1,3,14,74,006,42,22,61,093,42,31,37,182,42*7C


$GPRMC,000440.000,A,3959.9751,N,10500.0000,W,019.4,180.0,280510,,*12
$GPGGA,000440.000,3959.9751,N,10500.0000,W,1,3,0.0,37.1,M,-17.1,M,,*6A
$GPGSV,1,1,3,14,74,006,42,22,61,093,42,31,37,182,42*7C


$GPRMC,000440.000,A,3959.9751,N,10500.0000,W,019.4,180.0,280510,,*12
$GPGGA,000440.000,3959.9751,N,10500.0000,W,1,3,0.0,37.1,M,-17.1,M,,*6A
$GPGSV,1,1,3,14,74,006,42,22,61,093,42,31,37,182,42*7C


$GPRMC,000440.000,A,3959.9751,N,10500.0000,W,019.4,180.0,280510,,*12
$GPGGA,000440.000,3959.9751,N,10500.0000,W,1,3,0.0,37.1,M,-17.1,M,,*6A
$GPGSV,1,1,3,14,74,006,42,22,61,093,42,31,37,182,42*7C


$GPRMC,000440.000,A,3959.9751,N,10500.0000,W,019.4,180.0,280510,,*12
$GPGGA,000440.000,3959.9751,N,10500.0000,W,1,3,0.0,37.1,M,-17.1,M,,*6A
$GPGSV,1,1,3,14,74,006,42,22,61,093,42,31,37,182,42*7C


$GPRMC,000440.000,A,3959.9751,N,10500.0000,W,019.4,180.0,280510,,*12
$GPGGA,000440.000,3959.9751,N,10500.0000,W,1,3,0.0,37.1,M,-17.1,M,,*6A
$GPGSV,1,1,3,14,74,006,42,22,61,093,42,31,37,182,42*7C


$GPRMC,000440.000,A,3959.9751,N,10500.0000,W,019.4,180.0,280510,,*12
$GPGGA,000440.000,3959.9751,N,10500.0000,W,1,3,0.0,37.1,M,-17.1,M,,*6A
$GPGSV,1,1,3,14,74,006,42,22,61,093,42,31,37,182,42*7C


$GPRMC,000440.000,A,3959.9751,N,10500.0000,W,019.4,180.0,280510,,*12
$GPGGA,000440.000,3959.9751,N,10500.0000,W,1,3,0.0,37.1,M,-17.1,M,,*6A
$GPGSV,1,1,3,14,74,006,42,22,61,093,42,31,37,182,42*7C


$GPRMC,000440.000,A,3959.9751,N,10500.0000,W,019.4,180.0,280510,,*12
$GPGGA,000440.000,3959.9751,N,10500.0000,W,1,3,0.0,37.1,M,-17.1,M,,*6A
$GPGSV,1,1,3,14,74,006,42,22,61,093,42,31,37,182,42*7C


$GPRMC,000440.000,A,3959.9751,N,10500.0000,W,019.4,180.0,280510,,*12
$GPGGA,000440.000,3959.9751,N,10500.0000,W,1,3,0.0,37.1,M,-17.1,M,,*6A
$GPGSV,1,1,3,14,74,006,42,22,61,093,42,31,37,182,42*7C


$GPRMC,000440.000,A,3959.9751,N,10500.0000,W,019.4,180.0,280510,,*12
$GPGGA,000440.000,3959.9751,N,10500.0000,W,1,3,0.0,37.1,M,-17.1,M,,*6A
$GPGSV,1,1,3,14,74,006,42,22,61,093,42,31,37,182,42*7C


$GPRMC,000440.000,A,3959.9751,N,10500.0000,W,019.4,180.0,280510,,*12
$GPGGA,000440.000,3959.9751,N,10500.0000,W,1,3,0.0,37.1,M,-17.1,M,,*6A
$GPGSV,1,1,3,14,74,006,42,22,61,093,42,31,37,182,42*7C


$GPRMC,000440.000,A,3959.9751,N,10500.0000,W,019.4,180.0,280510,,*12
$GPGGA,000440.000,3959.9751,N,10500.0000,W,1,3,0.0,37.1,M,-17.1,M,,*6A
$GPGSV,1,1,3,14,74,006,42,22,61,093,42,31,37,182,42*7C


$GPRMC,000440.000,A,3959.9751,N,10500.0000,W,019.4,180.0,280510,,*12
$GPGGA,000440.000,3959.9751,N,10500.0000,W,1,3,0.0,37.1,M,-17.1,M,,*6A
$GPGSV,1,1,3,14,74,006,42,22,61,093,42,31,37,182,42*7C


$GPRMC,000440.000,A,3959.9751,N,10500.0000,W,019.4,180.0,280510,,*12
$GPGGA,000440.000,3959.9751,N,10500.0000,W,1,3,0.0,37.1,M,-17.1,M,,*6A
$GPGSV,1,1,3,14,74,006,42,22,61,093,42,31,37,182,42*7C


$GPRMC,000440.000,A,3959.9751,N,10500.0000,W,019.4,180.0,280510,,*12
$GPGGA,000440.000,3959.9751,N,10500.0000,W,1,3,0.0,37.1,M,-17.1,M,,*6A
$GPGSV,1,1,3,14,74,006,42,22,61,093,42,31,37,182,42*7C


$GPRMC,000440.000,A,3959.9751,N,10500.0000,W,019.4,180.0,280510,,*12
$GPGGA,000440.000,3959.9751,N,10500.0000,W,1,3,0.0,37.1,M,-17.1,M,,*6A
$GPGSV,1,1,3,14,74,006,42,22,61,093,42,31,37,182,42*7C


$GPRMC,000440.000,A,3959.9751,N,10500.0000,W,019.4,180.0,280510,,*12
$GPGGA,000440.000,3959.9751,N,10500.0000,W,1,3,0.0,37.1,M,-17.1,M,,*6A
$GPGSV,1,1,3,14,74,006,42,22,61,093,42,31,37,182,42*7C


$GPRMC,000440.000,A,3959.9751,N,10500.0000,W,019.4,180.0,280510,,*12
$GPGGA,000440.000,3959.9751,N,10500.0000,W,1,3,0.0,37.1,M,-17.1,M,,*6A
$GPGSV,1,1,3,14,74,006,42,22,61,093,42,31,37,182,42*7C


$GPRMC,000440.000,A,3959.9751,N,10500.0000,W,019.4,180.0,280510,,*12
$GPGGA,000440.000,3959.9751,N,10500.0000,W,1,3,0.0,37.1,M,-17.1,M,,*6A
$GPGSV,1,1,3,14,74,006,42,22,61,093,42,31,37,182,42*7C


$GPRMC,000440.000,A,3959.9751,N,10500.0000,W,019.4,180.0,280510,,*12
$GPGGA,000440.000,3959.9751,N,10500.0000,W,1,3,0.0,37.1,M,-17.1,M,,*6A
$GPGSV,1,1,3,14,74,006,42,22,61,093,42,31,37,182,42*7C


$GPRMC,000440.000,A,3959.9751,N,10500.0000,W,019.4,180.0,280510,,*12
$GPGGA,000440.000,3959.9751,N,10500.0000,W,1,3,0.0,37.1,M,-17.1,M,,*6A
$GPGSV,1,1,3,14,74,006,42,22,61,093,42,31,37,182,42*7C


$GPRMC,000440.000,A,3959.9751,N,10500.0000,W,019.4,180.0,280510,,*12
$GPGGA,000440.000,3959.9751,N,10500.0000,W,1,3,0.0,37.1,M,-17.1,M,,*6A
$GPGSV,1,1,3,14,74,006,42,22,61,093,42,31,37,182,42*7C


$GPRMC,000440.000,A,3959.9751,N,10500.0000,W,019.4,180.0,280510,,*12
$GPGGA,000440.000,3959.9751,N,10500.0000,W,1,3,0.0,37.1,M,-17.1,M,,*6A
$GPGSV,1,1,3,14,74,006,42,22,61,093,42,31,37,182,42*7C


$GPRMC,000440.000,A,3959.9751,N,10500.0000,W,019.4,180.0,280510,,*12
$GPGGA,000440.000,3959.9751,N,10500.0000,W,1,3,0.0,37.1,M,-17.1,M,,*6A
$GPGSV,1,1,3,14,74,006,42,22,61,093,42,31,37,182,42*7C


$GPRMC,000440.000,A,3959.9751,N,10500.0000,W,019.4,180.0,280510,,*12
$GPGGA,000440.000,3959.9751,N,10500.0000,W,1,3,0.0,37.1,M,-17.1,M,,*6A
$GPGSV,1,1,3,14,74,006,42,22,61,093,42,31,37,182,42*7C


$GPRMC,000440.000,A,3959.9751,N,10500.0000,W,019.4,180.0,280510,,*12
$GPGGA,000440.000,3959.9751,N,10500.0000,W,1,3,0.0,37.1,M,-17.1,M,,*6A
$GPGSV,1,1,3,14,74,006,42,22,61,093,42,31,37,182,42*7C


$GPRMC,000440.000,A,3959.9751,N,10500.0000,W,019.4,180.0,280510,,*12
$GPGGA,000440.000,3959.9751,N,10500.0000,W,1,3,0.0,37.1,M,-17.1,M,,*6A
$GPGSV,1,1,3,14,74,006,42,22,61,093,42,31,37,182,42*7C


$GPRMC,000440.000,A,3959.9751,N,10500.0000,W,019.4,180.0,280510,,*12
$GPGGA,000440.000,3959.9751,N,10500.0000,W,1,3,0.0,37.1,M,-17.1,M,,*6A
$GPGSV,1,1,3,14,74,006,42,22,61,093,42,31,37,182,42*7C


$GPRMC,000440.000,A,3959.9751,N,10500.0000,W,019.4,180.0,280510,,*12
$GPGGA,000440.000,3959.9751,N,10500.0000,W,1,3,0.0,37.1,M,-17.1,M,,*6A
$GPGSV,1,1,3,14,74,006,42,22,61,093,42,31,37,182,42*7C


$GPRMC,000440.000,A,3959.9751,N,10500.0000,W,019.4,180.0,280510,,*12
$GPGGA,000440.000,3959.9751,N,10500.0000,W,1,3,0.0,37.1,M,-17.1,M,,*6A
$GPGSV,1,1,3,14,74,006,42,22,61,093,42,31,37,182,42*7C


$GPRMC,000440.000,A,3959.9751,N,10500.0000,W,019.4,180.0,280510,,*12
$GPGGA,000440.000,3959.9751,N,10500.0000,W,1,3,0.0,37.1,M,-17.1,M,,*6A
$GPGSV,1,1,3,14,74,006,42,22,61,093,42,31,37,182,42*7C


$GPRMC,000440.000,A,3959.9751,N,10500.0000,W,019.4,180.0,280510,,*12
$GPGGA,000440.000,3959.9751,N,10500.0000,W,1,3,0.0,37.1,M,-17.1,M,,*6A
$GPGSV,1,1,3,14,74,006,42,22,61,093,42,31,37,182,42*7C


$GPRMC,000440.000,A,3959.9751,N,10500.0000,W,019.4,180.0,280510,,*12
$GPGGA,000440.000,3959.9751,N,10500.0000,W,1,3,0.0,37.1,M,-17.1,M,,*6A
$GPGSV,1,1,3,14,74,006,42,22,61,093,42,31,37,182,42*7C


$GPRMC,000440.000,A,3959.9751,N,10500.0000,W,019.4,180.0,280510,,*12
$GPGGA,000440.000,3959.9751,N,10500.0000,W,1,3,0.0,37.1,M,-17.1,M,,*6A
$GPGSV,1,1,3,14,74,006,42,22,61,093,42,31,37,182,42*7C


$GPRMC,000440.000,A,3959.9751,N,10500.0000,W,019.4,180.0,280510,,*12
$GPGGA,000440.000,3959.9751,N,10500.0000,W,1,3,0.0,37.1,M,-17.1,M,,*6A
$GPGSV,1,1,3,14,74,006,42,22,61,093,42,31,37,182,42*7C


$GPRMC,000440.000,A,3959.9751,N,10500.0000,W,019.4,180.0,280510,,*12
$GPGGA,000440.000,3959.9751,N,10500.0000,W,1,3,0.0,37.1,M,-17.1,M,,*6A
$GPGSV,1,1,3,14,74,006,42,22,61,093,42,31,37,182,42*7C


$GPRMC,000440.000,A,3959.9751,N,10500.0000,W,019.4,180.0,280510,,*12
$GPGGA,000440.000,3959.9751,N,10500.0000,W,1,3,0.0,37.1,M,-17.1,M,,*6A
$GPGSV,1,1,3,14,74,006,42,22,61,093,42,31,37,182,42*7C


$GPRMC,000440.000,A,3959.9751,N,10500.0000,W,019.4,180.0,280510,,*12
$GPGGA,000440.000,3959.9751,N,10500.0000,W,1,3,0.0,37.1,M,-17.1,M,,*6A
$GPGSV,1,1,3,14,74,006,42,22,61,093,42,31,37,182,42*7C


$GPRMC,000440.000,A,3959.9751,N,10500.0000,W,019.4,180.0,280510,,*12
$GPGGA,000440.000,3959.9751,N,10500.0000,W,1,3,0.0,37.1,M,-17.1,M,,*6A
$GPGSV,1,1,3,14,74,006,42,22,61,093,42,31,37,182,42*7C


$GPRMC,000440.000,A,3959.9751,N,10500.0000,W,019.4,180.0,280510,,*12
$GPGGA,000440.000,3959.9751,N,10500.0000,W,1,3,0.0,37.1,M,-17.1,M,,*6A
$GPGSV,1,1,3,14,74,006,42,22,61,093,42,31,37,182,42*7C


$GPRMC,000440.000,A,3959.9751,N,10500.0000,W,019.4,180.0,280510,,*12
$GPGGA,000440.000,3959.9751,N,10500.0000,W,1,3,0.0,37.1,M,-17.1,M,,*6A
$GPGSV,1,1,3,14,74,006,42,22,61,093,42,31,37,182,42*7C


$GPRMC,000440.000,A,3959.9751,N,10500.0000,W,019.4,180.0,280510,,*12
$GPGGA,000440.000,3959.9751,N,10500.0000,W,1,3,0.0,37.1,M,-17.1,M,,*6A
$GPGSV,1,1,3,14,74,006,42,22,61,093,42,31,37,182,42*7C


$GPRMC,000440.000,A,3959.9751,N,10500.0000,W,019.4,180.0,280510,,*12
$GPGGA,000440.000,3959.9751,N,10500.0000,W,1,3,0.0,37.1,M,-17.1,M,,*6A
$GPGSV,1,1,3,14,74,006,42,22,61,093,42,31,37,182,42*7C


$GPRMC,000440.000,A,3959.9751,N,10500.0000,W,019.4,180.0,280510,,*12
$GPGGA,000440.000,3959.9751,N,10500.0000,W,1,3,0.0,37.1,M,-17.1,M,,*6A
$GPGSV,1,1,3,14,74,006,42,22,61,093,42,31,37,182,42*7C


$GPRMC,000440.000,A,3959.9751,N,10500.0000,W,019.4,180.0,280510,,*12
$GPGGA,000440.000,3959.9751,N,10500.0000,W,1,3,0.0,37.1,M,-17.1,M,,*6A
$GPGSV,1,1,3,14,74,006,42,22,61,093,42,31,37,182,42*7C


$GPRMC,000441.000,A,3959.9697,N,10500.0000,W,019.4,180.0,280510,,*18
$GPGGA,000441.000,3959.9697,N,10500.0000,W,1,3,0.0,37.1,M,-17.1,M,,*60
$GPGSV,1,1,3,14,74,006,42,22,61,093,42,31,37,182,42*7C


$GPRMC,000441.000,A,3959.9697,N,10500.0000,W,019.4,180.0,280510,,*18
$GPGGA,000441.000,3959.9697,N,10500.0000,W,1,3,0.0,37.1,M,-17.1,M,,*60
$GPGSV,1,1,3,14,74,006,42,22,61,093,42,31,37,182,42*7C


$GPRMC,000441.000,A,3959.9697,N,10500.0000,W,019.4,180.0,280510,,*18
$GPGGA,000441.000,3959.9697,N,10500.0000,W,1,3,0.0,37.1,M,-17.1,M,,*60
$GPGSV,1,1,3,14,74,006,42,22,61,093,42,31,37,182,42*7C


$GPRMC,000441.000,A,3959.9697,N,10500.0000,W,019.4,180.0,280510,,*18
$GPGGA,000441.000,3959.9697,N,10500.0000,W,1,3,0.0,37.1,M,-17.1,M,,*60
$GPGSV,1,1,3,14,74,006,42,22,61,093,42,31,37,182,42*7C


$GPRMC,000441.000,A,3959.9697,N,10500.0000,W,019.4,180.0,280510,,*18
$GPGGA,000441.000,3959.9697,N,10500.0000,W,1,3,0.0,37.1,M,-17.1,M,,*60
$GPGSV,1,1,3,14,74,006,42,22,61,093,42,31,37,182,42*7C


$GPRMC,000441.000,A,3959.9697,N,10500.0000,W,019.4,180.0,280510,,*18
$GPGGA,000441.000,3959.9697,N,10500.0000,W,1,3,0.0,37.1,M,-17.1,M,,*60
$GPGSV,1,1,3,14,74,006,42,22,61,093,42,31,37,182,42*7C


$GPRMC,000441.000,A,3959.9697,N,10500.0000,W,019.4,180.0,280510,,*18
$GPGGA,000441.000,3959.9697,N,10500.0000,W,1,3,0.0,37.1,M,-17.1,M,,*60
$GPGSV,1,1,3,14,74,006,42,22,61,093,42,31,37,182,42*7C


$GPRMC,000441.000,A,3959.9697,N,10500.0000,W,019.4,180.0,280510,,*18
$GPGGA,000441.000,3959.9697,N,10500.0000,W,1,3,0.0,37.1,M,-17.1,M,,*60
$GPGSV,1,1,3,14,74,006,42,22,61,093,42,31,37,182,42*7C


$GPRMC,000441.000,A,3959.9697,N,10500.0000,W,019.4,180.0,280510,,*18
$GPGGA,000441.000,3959.9697,N,10500.0000,W,1,3,0.0,37.1,M,-17.1,M,,*60
$GPGSV,1,1,3,14,74,006,42,22,61,093,42,31,37,182,42*7C


$GPRMC,000441.000,A,3959.9697,N,10500.0000,W,019.4,180.0,280510,,*18
$GPGGA,000441.000,3959.9697,N,10500.0000,W,1,3,0.0,37.1,M,-17.1,M,,*60
$GPGSV,1,1,3,14,74,006,42,22,61,093,42,31,37,182,42*7C


$GPRMC,000441.000,A,3959.9697,N,10500.0000,W,019.4,180.0,280510,,*18
$GPGGA,000441.000,3959.9697,N,10500.0000,W,1,3,0.0,37.1,M,-17.1,M,,*60
$GPGSV,1,1,3,14,74,006,42,22,61,093,42,31,37,182,42*7C


$GPRMC,000441.000,A,3959.9697,N,10500.0000,W,019.4,180.0,280510,,*18
$GPGGA,000441.000,3959.9697,N,10500.0000,W,1,3,0.0,37.1,M,-17.1,M,,*60
$GPGSV,1,1,3,14,74,006,42,22,61,093,42,31,37,182,42*7C


$GPRMC,000441.000,A,3959.9697,N,10500.0000,W,019.4,180.0,280510,,*18
$GPGGA,000441.000,3959.9697,N,10500.0000,W,1,3,0.0,37.1,M,-17.1,M,,*60
$GPGSV,1,1,3,14,74,006,42,22,61,093,42,31,37,182,42*7C


$GPRMC,000441.000,A,3959.9697,N,10500.0000,W,019.4,180.0,280510,,*18
$GPGGA,000441.000,3959.9697,N,10500.0000,W,1,3,0.0,37.1,M,-17.1,M,,*60
$GPGSV,1,1,3,14,74,006,42,22,61,093,42,31,37,182,42*7C


$GPRMC,000441.000,A,3959.9697,N,10500.0000,W,019.4,180.0,280510,,*18
$GPGGA,000441.000,3959.9697,N,10500.0000,W,1,3,0.0,37.1,M,-17.1,M,,*60
$GPGSV,1,1,3,14,74,006,42,22,61,093,42,31,37,182,42*7C


$GPRMC,000441.000,A,3959.9697,N,10500.0000,W,019.4,180.0,280510,,*18
$GPGGA,000441.000,3959.9697,N,10500.0000,W,1,3,0.0,37.1,M,-17.1,M,,*60
$GPGSV,1,1,3,14,74,006,42,22,61,093,42,31,37,182,42*7C


$GPRMC,000441.000,A,3959.9697,N,10500.0000,W,019.4,180.0,280510,,*18
$GPGGA,000441.000,3959.9697,N,10500.0000,W,1,3,0.0,37.1,M,-17.1,M,,*60
$GPGSV,1,1,3,14,74,006,42,22,61,093,42,31,37,182,42*7C


$GPRMC,000441.000,A,3959.9697,N,10500.0000,W,019.4,180.0,280510,,*18
