$GPRMC,000439.000,A,4851.4019,N,00221.0480,E,000.0,003.1,280510,,*08
$GPGGA,000439.000,4851.4019,N,00221.0480,E,1,3,0.0,-24.7,M,44.7,M,,*73
$GPGSV,1,1,3,09,82,037,42,27,65,092,42,12,58,233,42*7A


$GPRMC,000439.000,A,4851.4019,N,00221.0480,E,000.0,003.1,280510,,*08
$GPGGA,000439.000,4851.4019,N,00221.0480,E,1,3,0.0,-24.7,M,44.7,M,,*73
$GPGSV,1,1,3,09,82,037,42,27,65,092,42,12,58,233,42*7A


$GPRMC,000439.000,A,4851.4019,N,00221.0480,E,000.0,003.1,280510,,*08
$GPGGA,000439.000,4851.4019,N,00221.0480,E,1,3,0.0,-24.7,M,44.7,M,,*73
$GPGSV,1,1,3,09,82,037,42,27,65,092,42,12,58,233,42*7A


$GPRMC,000440.000,A,4851.4019,N,00221.0480,E,000.0,003.1,280510,,*06
$GPGGA,000440.000,4851.4019,N,00221.0480,E,1,3,0.0,-24.7,M,44.7,M,,*7D
$GPGSV,1,1,3,09,82,037,42,27,65,092,42,12,58,233,42*7A


$GPRMC,000440.000,A,4851.4019,N,00221.0480,E,000.0,003.1,280510,,*06
$GPGGA,000440.000,4851.4019,N,00221.0480,E,1,3,0.0,-24.7,M,44.7,M,,*7D
$GPGSV,1,1,3,09,82,037,42,27,65,092,42,12,58,233,42*7A


$GPRMC,000440.000,A,4851.4019,N,00221.0480,E,000.0,003.1,280510,,*06
$GPGGA,000440.000,4851.4019,N,00221.0480,E,1,3,0.0,-24.7,M,44.7,M,,*7D
$GPGSV,1,1,3,09,82,037,42,27,65,092,42,12,58,233,42*7A


$GPRMC,000440.000,A,4851.4019,N,00221.0480,E,000.0,003.1,280510,,*06
$GPGGA,000440.000,4851.4019,N,00221.0480,E,1,3,0.0,-24.7,M,44.7,M,,*7D
$GPGSV,1,1,3,09,82,037,42,27,65,092,42,12,58,233,42*7A


$GPRMC,000440.000,A,4851.4019,N,00221.0480,E,000.0,003.1,280510,,*06
$GPGGA,000440.000,4851.4019,N,00221.0480,E,1,3,0.0,-24.7,M,44.7,M,,*7D
$GPGSV,1,1,3,09,82,037,42,27,65,092,42,12,58,233,42*7A


$GPRMC,000440.000,A,4851.4019,N,00221.0480,E,000.0,003.1,280510,,*06
$GPGGA,000440.000,4851.4019,N,00221.0480,E,1,3,0.0,-24.7,M,44.7,M,,*7D
$GPGSV,1,1,3,09,82,037,42,27,65,092,42,12,58,233,42*7A


$GPRMC,000440.000,A,4851.4019,N,00221.0480,E,000.0,003.1,280510,,*06
$GPGGA,000440.000,4851.4019,N,00221.0480,E,1,3,0.0,-24.7,M,44.7,M,,*7D
$GPGSV,1,1,3,09,82,037,42,27,65,092,42,12,58,233,42*7A


$GPRMC,000440.000,A,4851.4019,N,00221.0480,E,000.0,003.1,280510,,*06
$GPGGA,000440.000,4851.4019,N,00221.0480,E,1,3,0.0,-24.7,M,44.7,M,,*7D
$GPGSV,1,1,3,09,82,037,42,27,65,092,42,12,58,233,42*7A


$GPRMC,000440.000,A,4851.4019,N,00221.0480,E,000.0,003.1,280510,,*06
$GPGGA,000440.000,4851.4019,N,00221.0480,E,1,3,0.0,-24.7,M,44.7,M,,*7D
$GPGSV,1,1,3,09,82,037,42,27,65,092,42,12,58,233,42*7A


$GPRMC,000440.000,A,4851.4019,N,00221.0480,E,000.0,003.1,280510,,*06
$GPGGA,000440.000,4851.4019,N,00221.0480,E,1,3,0.0,-24.7,M,44.7,M,,*7D
$GPGSV,1,1,3,09,82,037,42,27,65,092,42,12,58,233,42*7A


$GPRMC,000440.000,A,4851.4019,N,00221.0480,E,000.0,003.1,280510,,*06
$GPGGA,000440.000,4851.4019,N,00221.0480,E,1,3,0.0,-24.7,M,44.7,M,,*7D
$GPGSV,1,1,3,09,82,037,42,27,65,092,42,12,58,233,42*7A


$GPRMC,000440.000,A,4851.4019,N,00221.0480,E,000.0,003.1,280510,,*06
$GPGGA,000440.000,4851.4019,N,00221.0480,E,1,3,0.0,-24.7,M,44.7,M,,*7D
$GPGSV,1,1,3,09,82,037,42,27,65,092,42,12,58,233,42*7A


$GPRMC,000440.000,A,4851.4019,N,00221.0480,E,000.0,003.1,280510,,*06
$GPGGA,000440.000,4851.4019,N,00221.0480,E,1,3,0.0,-24.7,M,44.7,M,,*7D
$GPGSV,1,1,3,09,82,037,42,27,65,092,42,12,58,233,42*7A


$GPRMC,000440.000,A,4851.4019,N,00221.0480,E,000.0,003.1,280510,,*06
$GPGGA,000440.000,4851.4019,N,00221.0480,E,1,3,0.0,-24.7,M,44.7,M,,*7D
$GPGSV,1,1,3,09,82,037,42,27,65,092,42,12,58,233,42*7A


$GPRMC,000440.000,A,4851.4019,N,00221.0480,E,000.0,003.1,280510,,*06
$GPGGA,000440.000,4851.4019,N,00221.0480,E,1,3,0.0,-24.7,M,44.7,M,,*7D
$GPGSV,1,1,3,09,82,037,42,27,65,092,42,12,58,233,42*7A


$GPRMC,000440.000,A,4851.4019,N,00221.0480,E,000.0,003.1,280510,,*06
$GPGGA,000440.000,4851.4019,N,00221.0480,E,1,3,0.0,-24.7,M,44.7,M,,*7D
$GPGSV,1,1,3,09,82,037,42,27,65,092,42,12,58,233,42*7A


$GPRMC,000440.000,A,4851.4019,N,00221.0480,E,000.0,003.1,280510,,*06
$GPGGA,000440.000,4851.4019,N,00221.0480,E,1,3,0.0,-24.7,M,44.7,M,,*7D
$GPGSV,1,1,3,09,82,037,42,27,65,092,42,12,58,233,42*7A


$GPRMC,000440.000,A,4851.4019,N,00221.0480,E,000.0,003.1,280510,,*06
$GPGGA,000440.000,4851.4019,N,00221.0480,E,1,3,0.0,-24.7,M,44.7,M,,*7D
$GPGSV,1,1,3,09,82,037,42,27,65,092,42,12,58,233,42*7A


$GPRMC,000440.000,A,4851.4019,N,00221.0480,E,000.0,003.1,280510,,*06
$GPGGA,000440.000,4851.4019,N,00221.0480,E,1,3,0.0,-24.7,M,44.7,M,,*7D
$GPGSV,1,1,3,09,82,037,42,27,65,092,42,12,58,233,42*7A


$GPRMC,000440.000,A,4851.4019,N,00221.0480,E,000.0,003.1,280510,,*06
$GPGGA,000440.000,4851.4019,N,00221.0480,E,1,3,0.0,-24.7,M,44.7,M,,*7D
$GPGSV,1,1,3,09,82,037,42,27,65,092,42,12,58,233,42*7A


$GPRMC,000440.000,A,4851.4019,N,00221.0480,E,000.0,003.1,280510,,*06
$GPGGA,000440.000,4851.4019,N,00221.0480,E,1,3,0.0,-24.7,M,44.7,M,,*7D
$GPGSV,1,1,3,09,82,037,42,27,65,092,42,12,58,233,42*7A


$GPRMC,000440.000,A,4851.4019,N,00221.0480,E,000.0,003.1,280510,,*06
$GPGGA,000440.000,4851.4019,N,00221.0480,E,1,3,0.0,-24.7,M,44.7,M,,*7D
$GPGSV,1,1,3,09,82,037,42,27,65,092,42,12,58,233,42*7A


$GPRMC,000440.000,A,4851.4019,N,00221.0480,E,000.0,003.1,280510,,*06
$GPGGA,000440.000,4851.4019,N,00221.0480,E,1,3,0.0,-24.7,M,44.7,M,,*7D
$GPGSV,1,1,3,09,82,037,42,27,65,092,42,12,58,233,42*7A


$GPRMC,000440.000,A,4851.4019,N,00221.0480,E,000.0,003.1,280510,,*06
$GPGGA,000440.000,4851.4019,N,00221.0480,E,1,3,0.0,-24.7,M,44.7,M,,*7D
$GPGSV,1,1,3,09,82,037,42,27,65,092,42,12,58,233,42*7A


$GPRMC,000440.000,A,4851.4019,N,00221.0480,E,000.0,003.1,280510,,*06
$GPGGA,000440.000,4851.4019,N,00221.0480,E,1,3,0.0,-24.7,M,44.7,M,,*7D
$GPGSV,1,1,3,09,82,037,42,27,65,092,42,12,58,233,42*7A


$GPRMC,000440.000,A,4851.4019,N,00221.0480,E,000.0,003.1,280510,,*06
$GPGGA,000440.000,4851.4019,N,00221.0480,E,1,3,0.0,-24.7,M,44.7,M,,*7D
$GPGSV,1,1,3,09,82,037,42,27,65,092,42,12,58,233,42*7A


$GPRMC,000440.000,A,4851.4019,N,00221.0480,E,000.0,003.1,280510,,*06
$GPGGA,000440.000,4851.4019,N,00221.0480,E,1,3,0.0,-24.7,M,44.7,M,,*7D
$GPGSV,1,1,3,09,82,037,42,27,65,092,42,12,58,233,42*7A


$GPRMC,000440.000,A,4851.4019,N,00221.0480,E,000.0,003.1,280510,,*06
$GPGGA,000440.000,4851.4019,N,00221.0480,E,1,3,0.0,-24.7,M,44.7,M,,*7D
$GPGSV,1,1,3,09,82,037,42,27,65,092,42,12,58,233,42*7A


$GPRMC,000440.000,A,4851.4019,N,00221.0480,E,000.0,003.1,280510,,*06
$GPGGA,000440.000,4851.4019,N,00221.0480,E,1,3,0.0,-24.7,M,44.7,M,,*7D
$GPGSV,1,1,3,09,82,037,42,27,65,092,42,12,58,233,42*7A


$GPRMC,000440.000,A,4851.4019,N,00221.0480,E,000.0,003.1,280510,,*06
$GPGGA,000440.000,4851.4019,N,00221.0480,E,1,3,0.0,-24.7,M,44.7,M,,*7D
$GPGSV,1,1,3,09,82,037,42,27,65,092,42,12,58,233,42*7A


$GPRMC,000440.000,A,4851.4019,N,00221.0480,E,000.0,003.1,280510,,*06
$GPGGA,000440.000,4851.4019,N,00221.0480,E,1,3,0.0,-24.7,M,44.7,M,,*7D
$GPGSV,1,1,3,09,82,037,42,27,65,092,42,12,58,233,42*7A


$GPRMC,000440.000,A,4851.4019,N,00221.0480,E,000.0,003.1,280510,,*06
$GPGGA,000440.000,4851.4019,N,00221.0480,E,1,3,0.0,-24.7,M,44.7,M,,*7D
$GPGSV,1,1,3,09,82,037,42,27,65,092,42,12,58,233,42*7A


$GPRMC,000440.000,A,4851.4019,N,00221.0480,E,000.0,003.1,280510,,*06
$GPGGA,000440.000,4851.4019,N,00221.0480,E,1,3,0.0,-24.7,M,44.7,M,,*7D
$GPGSV,1,1,3,09,82,037,42,27,65,092,42,12,58,233,42*7A


$GPRMC,000440.000,A,4851.4019,N,00221.0480,E,000.0,003.1,280510,,*06
$GPGGA,000440.000,4851.4019,N,00221.0480,E,1,3,0.0,-24.7,M,44.7,M,,*7D
$GPGSV,1,1,3,09,82,037,42,27,65,092,42,12,58,233,42*7A


$GPRMC,000440.000,A,4851.4019,N,00221.0480,E,000.0,003.1,280510,,*06
$GPGGA,000440.000,4851.4019,N,00221.0480,E,1,3,0.0,-24.7,M,44.7,M,,*7D
$GPGSV,1,1,3,09,82,037,42,27,65,092,42,12,58,233,42*7A


$GPRMC,000440.000,A,4851.4019,N,00221.0480,E,000.0,003.1,280510,,*06
$GPGGA,000440.000,4851.4019,N,00221.0480,E,1,3,0.0,-24.7,M,44.7,M,,*7D
$GPGSV,1,1,3,09,82,037,42,27,65,092,42,12,58,233,42*7A


$GPRMC,000440.000,A,4851.4019,N,00221.0480,E,000.0,003.1,280510,,*06
$GPGGA,000440.000,4851.4019,N,00221.0480,E,1,3,0.0,-24.7,M,44.7,M,,*7D
$GPGSV,1,1,3,09,82,037,42,27,65,092,42,12,58,233,42*7A


$GPRMC,000440.000,A,4851.4019,N,00221.0480,E,000.0,003.1,280510,,*06
$GPGGA,000440.000,4851.4019,N,00221.0480,E,1,3,0.0,-24.7,M,44.7,M,,*7D
$GPGSV,1,1,3,09,82,037,42,27,65,092,42,12,58,233,42*7A


$GPRMC,000440.000,A,4851.4019,N,00221.0480,E,000.0,003.1,280510,,*06
$GPGGA,000440.000,4851.4019,N,00221.0480,E,1,3,0.0,-24.7,M,44.7,M,,*7D
$GPGSV,1,1,3,09,82,037,42,27,65,092,42,12,58,233,42*7A


$GPRMC,000440.000,A,4851.4019,N,00221.0480,E,000.0,003.1,280510,,*06
$GPGGA,000440.000,4851.4019,N,00221.0480,E,1,3,0.0,-24.7,M,44.7,M,,*7D
$GPGSV,1,1,3,09,82,037,42,27,65,092,42,12,58,233,42*7A


$GPRMC,000440.000,A,4851.4019,N,00221.0480,E,000.0,003.1,280510,,*06
$GPGGA,000440.000,4851.4019,N,00221.0480,E,1,3,0.0,-24.7,M,44.7,M,,*7D
$GPGSV,1,1,3,09,82,037,42,27,65,092,42,12,58,233,42*7A


$GPRMC,000440.000,A,4851.4019,N,00221.0480,E,000.0,003.1,280510,,*06
$GPGGA,000440.000,4851.4019,N,00221.0480,E,1,3,0.0,-24.7,M,44.7,M,,*7D
$GPGSV,1,1,3,09,82,037,42,27,65,092,42,12,58,233,42*7A


$GPRMC,000440.000,A,4851.4019,N,00221.0480,E,000.0,003.1,280510,,*06
$GPGGA,000440.000,4851.4019,N,00221.0480,E,1,3,0.0,-24.7,M,44.7,M,,*7D
$GPGSV,1,1,3,09,82,037,42,27,65,092,42,12,58,233,42*7A


$GPRMC,000440.000,A,4851.4019,N,00221.0480,E,000.0,003.1,280510,,*06
$GPGGA,000440.000,4851.4019,N,00221.0480,E,1,3,0.0,-24.7,M,44.7,M,,*7D
$GPGSV,1,1,3,09,82,037,42,27,65,092,42,12,58,233,42*7A


$GPRMC,000440.000,A,4851.4019,N,00221.0480,E,000.0,003.1,280510,,*06
$GPGGA,000440.000,4851.4019,N,00221.0480,E,1,3,0.0,-24.7,M,44.7,M,,*7D
$GPGSV,1,1,3,09,82,037,42,27,65,092,42,12,58,233,42*7A


$GPRMC,000440.000,A,4851.4019,N,00221.0480,E,000.0,003.1,280510,,*06
$GPGGA,000440.000,4851.4019,N,00221.0480,E,1,3,0.0,-24.7,M,44.7,M,,*7D
$GPGSV,1,1,3,09,82,037,42,27,65,092,42,12,58,233,42*7A


$GPRMC,000440.000,A,4851.4019,N,00221.0480,E,000.0,003.1,280510,,*06
$GPGGA,000440.000,4851.4019,N,00221.0480,E,1,3,0.0,-24.7,M,44.7,M,,*7D
$GPGSV,1,1,3,09,82,037,42,27,65,092,42,12,58,233,42*7A


$GPRMC,000440.000,A,4851.4019,N,00221.0480,E,000.0,003.1,280510,,*06
$GPGGA,000440.000,4851.4019,N,00221.0480,E,1,3,0.0,-24.7,M,44.7,M,,*7D
$GPGSV,1,1,3,09,82,037,42,27,65,092,42,12,58,233,42*7A


$GPRMC,000440.000,A,4851.4019,N,00221.0480,E,000.0,003.1,280510,,*06
$GPGGA,000440.000,4851.4019,N,00221.0480,E,1,3,0.0,-24.7,M,44.7,M,,*7D
$GPGSV,1,1,3,09,82,037,42,27,65,092,42,12,58,233,42*7A


$GPRMC,000441.000,A,4851.4019,N,00221.0480,E,000.0,003.1,280510,,*07
$GPGGA,000441.000,4851.4019,N,00221.0480,E,1,3,0.0,-24.7,M,44.7,M,,*7C
$GPGSV,1,1,3,09,82,037,42,27,65,092,42,12,58,233,42*7A


$GPRMC,000441.000,A,4851.4019,N,00221.0480,E,000.0,003.1,280510,,*07
$GPGGA,000441.000,4851.4019,N,00221.0480,E,1,3,0.0,-24.7,M,44.7,M,,*7C
$GPGSV,1,1,3,09,82,037,42,27,65,092,42,12,58,233,42*7A


$GPRMC,000441.000,A,4851.4019,N,00221.0480,E,000.0,003.1,280510,,*07
$GPGGA,000441.000,4851.4019,N,00221.0480,E,1,3,0.0,-24.7,M,44.7,M,,*7C
$GPGSV,1,1,3,09,82,037,42,27,65,092,42,12,58,233,42*7A


$GPRMC,000441.000,A,4851.4019,N,00221.0480,E,000.0,003.1,280510,,*07
$GPGGA,000441.000,4851.4019,N,00221.0480,E,1,3,0.0,-24.7,M,44.7,M,,*7C
$GPGSV,1,1,3,09,82,037,42,27,65,092,42,12,58,233,42*7A


$GPRMC,000441.000,A,4851.4019,N,00221.0480,E,000.0,003.1,280510,,*07
$GPGGA,000441.000,4851.4019,N,00221.0480,E,1,3,0.0,-24.7,M,44.7,M,,*7C
$GPGSV,1,1,3,09,82,037,42,27,65,092,42,12,58,233,42*7A


$GPRMC,000441.000,A,4851.4019,N,00221.0480,E,000.0,003.1,280510,,*07
$GPGGA,000441.000,4851.4019,N,00221.0480,E,1,3,0.0,-24.7,M,44.7,M,,*7C
$GPGSV,1,1,3,09,82,037,42,27,65,092,42,12,58,233,42*7A


$GPRMC,000441.000,A,4851.4019,N,00221.0480,E,000.0,003.1,280510,,*07
$GPGGA,000441.000,4851.4019,N,00221.0480,E,1,3,0.0,-24.7,M,44.7,M,,*7C
$GPGSV,1,1,3,09,82,037,42,27,65,092,42,12,58,233,42*7A


$GPRMC,000441.000,A,4851.4019,N,00221.0480,E,000.0,003.1,280510,,*07
$GPGGA,000441.000,4851.4019,N,00221.0480,E,1,3,0.0,-24.7,M,44.7,M,,*7C
$GPGSV,1,1,3,09,82,037,42,27,65,092,42,12,58,233,42*7A


$GPRMC,000441.000,A,4851.4019,N,00221.0480,E,000.0,003.1,280510,,*07
$GPGGA,000441.000,4851.4019,N,00221.0480,E,1,3,0.0,-24.7,M,44.7,M,,*7C
$GPGSV,1,1,3,09,82,037,42,27,65,092,42,12,58,233,42*7A


$GPRMC,000441.000,A,4851.4019,N,00221.0480,E,000.0,003.1,280510,,*07
$GPGGA,000441.000,4851.4019,N,00221.0480,E,1,3,0.0,-24.7,M,44.7,M,,*7C
$GPGSV,1,1,3,09,82,037,42,27,65,092,42,12,58,233,42*7A


$GPRMC,000441.000,A,4851.4019,N,00221.0480,E,000.0,003.1,280510,,*07
$GPGGA,000441.000,4851.4019,N,00221.0480,E,1,3,0.0,-24.7,M,44.7,M,,*7C
$GPGSV,1,1,3,09,82,037,42,27,65,092,42,12,58,233,42*7A


$GPRMC,000441.000,A,4851.4019,N,00221.0480,E,000.0,003.1,280510,,*07
$GPGGA,000441.000,4851.4019,N,00221.0480,E,1,3,0.0,-24.7,M,44.7,M,,*7C
$GPGSV,1,1,3,09,82,037,42,27,65,092,42,12,58,233,42*7A


$GPRMC,000441.000,A,4851.4019,N,00221.0480,E,000.0,003.1,280510,,*07
$GPGGA,000441.000,4851.4019,N,00221.0480,E,1,3,0.0,-24.7,M,44.7,M,,*7C
$GPGSV,1,1,3,09,82,037,42,27,65,092,42,12,58,233,42*7A


$GPRMC,000441.000,A,4851.4019,N,00221.0480,E,000.0,003.1,280510,,*07
$GPGGA,000441.000,4851.4019,N,00221.0480,E,1,3,0.0,-24.7,M,44.7,M,,*7C
$GPGSV,1,1,3,09,82,037,42,27,65,092,42,12,58,233,42*7A


$GPRMC,000441.000,A,4851.4019,N,00221.0480,E,000.0,003.1,280510,,*07
$GPGGA,000441.000,4851.4019,N,00221.0480,E,1,3,0.0,-24.7,M,44.7,M,,*7C
$GPGSV,1,1,3,09,82,037,42,27,65,092,42,12,58,233,42*7A


$GPRMC,000441.000,A,4851.4019,N,00221.0480,E,000.0,003.1,280510,,*07
$GPGGA,000441.000,4851.4019,N,00221.0480,E,1,3,0.0,-24.7,M,44.7,M,,*7C
$GPGSV,1,1,3,09,82,037,42,27,65,092,42,12,58,233,42*7A


$GPRMC,000441.000,A,4851.4019,N,00221.0480,E,000.0,003.1,280510,,*07
$GPGGA,000441.000,4851.4019,N,00221.0480,E,1,3,0.0,-24.7,M,44.7,M,,*7C
$GPGSV,1,1,3,09,82,037,42,27,65,092,42,12,58,233,42*7A


$GPRMC,000441.000,A,4851.4019,N,00221.0480,E,000.0,003.1,280510,,*07
$GPGGA,000441.000,4851.4019,N,00221.0480,E,1,3,0.0,-24.7,M,44.7,M,,*7C
$GPGSV,1,1,3,09,82,037,42,27,65,092,42,12,58,233,42*7A


$GPRMC,000441.000,A,4851.4019,N,00221.0480,E,000.0,003.1,280510,,*07
$GPGGA,000441.000,4851.4019,N,00221.0480,E,1,3,0.0,-24.7,M,44.7,M,,*7C
$GPGSV,1,1,3,09,82,037,42,27,65,092,42,12,58,233,42*7A


$GPRMC,000441.000,A,4851.4019,N,00221.0480,E,000.0,003.1,280510,,*07
$GPGGA,000441.000,4851.4019,N,00221.0480,E,1,3,0.0,-24.7,M,44.7,M,,*7C
$GPGSV,1,1,3,09,82,037,42,27,65,092,42,12,58,233,42*7A


$GPRMC,000441.000,A,4851.4019,N,00221.0480,E,000.0,003.1,280510,,*07
$GPGGA,000441.000,4851.4019,N,00221.0480,E,1,3,0.0,-24.7,M,44.7,M,,*7C
$GPGSV,1,1,3,09,82,037,42,27,65,092,42,12,58,233,42*7A


$GPRMC,000441.000,A,4851.4019,N,00221.0480,E,000.0,003.1,280510,,*07
$GPGGA,000441.000,4851.4019,N,00221.0480,E,1,3,0.0,-24.7,M,44.7,M,,*7C
$GPGSV,1,1,3,09,82,037,42,27,65,092,42,12,58,233,42*7A


$GPRMC,000441.000,A,4851.4019,N,00221.0480,E,000.0,003.1,280510,,*07
$GPGGA,000441.000,4851.4019,N,00221.0480,E,1,3,0.0,-24.7,M,44.7,M,,*7C
$GPGSV,1,1,3,09,82,037,42,27,65,092,42,12,58,233,42*7A


$GPRMC,000441.000,A,4851.4019,N,00221.0480,E,000.0,003.1,280510,,*07
$GPGGA,000441.000,4851.4019,N,00221.0480,E,1,3,0.0,-24.7,M,44.7,M,,*7C
$GPGSV,1,1,3,09,82,037,42,27,65,092,42,12,58,233,42*7A


$GPRMC,000441.000,A,4851.4019,N,00221.0480,E,000.0,003.1,280510,,*07
$GPGGA,000441.000,4851.4019,N,00221.0480,E,1,3,0.0,-24.7,M,44.7,M,,*7C
$GPGSV,1,1,3,09,82,037,42,27,65,092,42,12,58,233,42*7A


$GPRMC,000441.000,A,4851.4019,N,00221.0480,E,000.0,003.1,280510,,*07
$GPGGA,000441.000,4851.4019,N,00221.0480,E,1,3,0.0,-24.7,M,44.7,M,,*7C
$GPGSV,1,1,3,09,82,037,42,27,65,092,42,12,58,233,42*7A


$GPRMC,000441.000,A,4851.4019,N,00221.0480,E,000.0,003.1,280510,,*07
$GPGGA,000441.000,4851.4019,N,00221.0480,E,1,3,0.0,-24.7,M,44.7,M,,*7C
$GPGSV,1,1,3,09,82,037,42,27,65,092,42,12,58,233,42*7A


$GPRMC,000441.000,A,4851.4019,N,00221.0480,E,000.0,003.1,280510,,*07
$GPGGA,000441.000,4851.4019,N,00221.0480,E,1,3,0.0,-24.7,M,44.7,M,,*7C
$GPGSV,1,1,3,09,82,037,42,27,65,092,42,12,58,233,42*7A


$GPRMC,000441.000,A,4851.4019,N,00221.0480,E,000.0,003.1,280510,,*07
$GPGGA,000441.000,4851.4019,N,00221.0480,E,1,3,0.0,-24.7,M,44.7,M,,*7C
$GPGSV,1,1,3,09,82,037,42,27,65,092,42,12,58,233,42*7A


$GPRMC,000441.000,A,4851.4019,N,00221.0480,E,000.0,003.1,280510,,*07
$GPGGA,000441.000,4851.4019,N,00221.0480,E,1,3,0.0,-24.7,M,44.7,M,,*7C
$GPGSV,1,1,3,09,82,037,42,27,65,092,42,12,58,233,42*7A


$GPRMC,000441.000,A,4851.4019,N,00221.0480,E,000.0,003.1,280510,,*07
$GPGGA,000441.000,4851.4019,N,00221.0480,E,1,3,0.0,-24.7,M,44.7,M,,*7C
$GPGSV,1,1,3,09,82,037,42,27,65,092,42,12,58,233,42*7A


$GPRMC,000441.000,A,4851.4019,N,00221.0480,E,000.0,003.1,280510,,*07
$GPGGA,000441.000,4851.4019,N,00221.0480,E,1,3,0.0,-24.7,M,44.7,M,,*7C
$GPGSV,1,1,3,09,82,037,42,27,65,092,42,12,58,233,42*7A


$GPRMC,000441.000,A,4851.4019,N,00221.0480,E,000.0,003.1,280510,,*07
$GPGGA,000441.000,4851.4019,N,00221.0480,E,1,3,0.0,-24.7,M,44.7,M,,*7C
$GPGSV,1,1,3,09,82,037,42,27,65,092,42,12,58,233,42*7A


$GPRMC,000441.000,A,4851.4019,N,00221.0480,E,000.0,003.1,280510,,*07
$GPGGA,000441.000,4851.4019,N,00221.0480,E,1,3,0.0,-24.7,M,44.7,M,,*7C
$GPGSV,1,1,3,09,82,037,42,27,65,092,42,12,58,233,42*7A


$GPRMC,000441.000,A,4851.4019,N,00221.0480,E,000.0,003.1,280510,,*07
$GPGGA,000441.000,4851.4019,N,00221.0480,E,1,3,0.0,-24.7,M,44.7,M,,*7C
$GPGSV,1,1,3,09,82,037,42,27,65,092,42,12,58,233,42*7A


$GPRMC,000441.000,A,4851.4019,N,00221.0480,E,000.0,003.1,280510,,*07
$GPGGA,000441.000,4851.4019,N,00221.0480,E,1,3,0.0,-24.7,M,44.7,M,,*7C
$GPGSV,1,1,3,09,82,037,42,27,65,092,42,12,58,233,42*7A


$GPRMC,000441.000,A,4851.4019,N,00221.0480,E,000.0,003.1,280510,,*07
$GPGGA,000441.000,4851.4019,N,00221.0480,E,1,3,0.0,-24.7,M,44.7,M,,*7C
$GPGSV,1,1,3,09,82,037,42,27,65,092,42,12,58,233,42*7A


$GPRMC,000441.000,A,4851.4019,N,00221.0480,E,000.0,003.1,280510,,*07
$GPGGA,000441.000,4851.4019,N,00221.0480,E,1,3,0.0,-24.7,M,44.7,M,,*7C
$GPGSV,1,1,3,09,82,037,42,27,65,092,42,12,58,233,42*7A


$GPRMC,000441.000,A,4851.4019,N,00221.0480,E,000.0,003.1,280510,,*07
$GPGGA,000441.000,4851.4019,N,00221.0480,E,1,3,0.0,-24.7,M,44.7,M,,*7C
$GPGSV,1,1,3,09,82,037,42,27,65,092,42,12,58,233,42*7A


$GPRMC,000441.000,A,4851.4019,N,00221.0480,E,000.0,003.1,280510,,*07
$GPGGA,000441.000,4851.4019,N,00221.0480,E,1,3,0.0,-24.7,M,44.7,M,,*7C
$GPGSV,1,1,3,09,82,037,42,27,65,092,42,12,58,233,42*7A


$GPRMC,000441.000,A,4851.4019,N,00221.0480,E,000.0,003.1,280510,,*07
$GPGGA,000441.000,4851.4019,N,00221.0480,E,1,3,0.0,-24.7,M,44.7,M,,*7C
$GPGSV,1,1,3,09,82,037,42,27,65,092,42,12,58,233,42*7A


$GPRMC,000441.000,A,4851.4019,N,00221.0480,E,000.0,003.1,280510,,*07
$GPGGA,000441.000,4851.4019,N,00221.0480,E,1,3,0.0,-24.7,M,44.7,M,,*7C
$GPGSV,1,1,3,09,82,037,42,27,65,092,42,12,58,233,42*7A


$GPRMC,000441.000,A,4851.4019,N,00221.0480,E,000.0,003.1,280510,,*07
$GPGGA,000441.000,4851.4019,N,00221.0480,E,1,3,0.0,-24.7,M,44.7,M,,*7C
$GPGSV,1,1,3,09,82,037,42,27,65,092,42,12,58,233,42*7A


$GPRMC,000441.000,A,4851.4019,N,00221.0480,E,000.0,003.1,280510,,*07
$GPGGA,000441.000,4851.4019,N,00221.0480,E,1,3,0.0,-24.7,M,44.7,M,,*7C
$GPGSV,1,1,3,09,82,037,42,27,65,092,42,12,58,233,42*7A


$GPRMC,000441.000,A,4851.4019,N,00221.0480,E,000.0,003.1,280510,,*07
$GPGGA,000441.000,4851.4019,N,00221.0480,E,1,3,0.0,-24.7,M,44.7,M,,*7C
$GPGSV,1,1,3,09,82,037,42,27,65,092,42,12,58,233,42*7A


$GPRMC,000441.000,A,4851.4019,N,00221.0480,E,000.0,003.1,280510,,*07
$GPGGA,000441.000,4851.4019,N,00221.0480,E,1,3,0.0,-24.7,M,44.7,M,,*7C
$GPGSV,1,1,3,09,82,037,42,27,65,092,42,12,58,233,42*7A


$GPRMC,000441.000,A,4851.4019,N,00221.0480,E,000.0,003.1,280510,,*07
$GPGGA,000441.000,4851.4019,N,00221.0480,E,1,3,0.0,-24.7,M,44.7,M,,*7C
$GPGSV,1,1,3,09,82,037,42,27,65,092,42,12,58,233,42*7A


$GPRMC,000441.000,A,4851.4019,N,00221.0480,E,000.0,003.1,280510,,*07
$GPGGA,000441.000,4851.4019,N,00221.0480,E,1,3,0.0,-24.7,M,44.7,M,,*7C
$GPGSV,1,1,3,09,82,037,42,27,65,092,42,12,58,233,42*7A


$GPRMC,000441.000,A,4851.4019,N,00221.0480,E,000.0,003.1,280510,,*07
$GPGGA,000441.000,4851.4019,N,00221.0480,E,1,3,0.0,-24.7,M,44.7,M,,*7C
$GPGSV,1,1,3,09,82,037,42,27,65,092,42,12,58,233,42*7A


$GPRMC,000441.000,A,4851.4019,N,00221.0480,E,000.0,003.1,280510,,*07
$GPGGA,000441.000,4851.4019,N,00221.0480,E,1,3,0.0,-24.7,M,44.7,M,,*7C
$GPGSV,1,1,3,09,82,037,42,27,65,092,42,12,58,233,42*7A


$GPRMC,000441.000,A,4851.4019,N,00221.0480,E,000.0,003.1,280510,,*07
$GPGGA,000441.000,4851.4019,N,00221.0480,E,1,3,0.0,-24.7,M,44.7,M,,*7C
$GPGSV,1,1,3,09,82,037,42,27,65,092,42,12,58,233,42*7A


$GPRMC,000442.000,A,4851.4019,N,00221.0480,E,000.0,003.1,280510,,*04
$GPGGA,000442.000,4851.4019,N,00221.0480,E,1,3,0.0,-24.7,M,44.7,M,,*7F
$GPGSV,1,1,3,09,82,037,42,27,65,092,42,12,58,233,42*7A


$GPRMC,000442.000,A,4851.4019,N,00221.0480,E,000.0,003.1,280510,,*04
$GPGGA,000442.000,4851.4019,N,00221.0480,E,1,3,0.0,-24.7,M,44.7,M,,*7F
$GPGSV,1,1,3,09,82,037,42,27,65,092,42,12,58,233,42*7A


$GPRMC,000442.000,A,4851.4019,N,00221.0480,E,000.0,003.1,280510,,*04
$GPGGA,000442.000,4851.4019,N,00221.0480,E,1,3,0.0,-24.7,M,44.7,M,,*7F
$GPGSV,1,1,3,09,82,037,42,27,65,092,42,12,58,233,42*7A


$GPRMC,000442.000,A,4851.4019,N,00221.0480,E,000.0,003.1,280510,,*04
$GPGGA,000442.000,4851.4019,N,00221.0480,E,1,3,0.0,-24.7,M,44.7,M,,*7F
$GPGSV,1,1,3,09,82,037,42,27,65,092,42,12,58,233,42*7A


$GPRMC,000442.000,A,4851.4019,N,00221.0480,E,000.0,003.1,280510,,*04
$GPGGA,000442.000,4851.4019,N,00221.0480,E,1,3,0.0,-24.7,M,44.7,M,,*7F
$GPGSV,1,1,3,09,82,037,42,27,65,092,42,12,58,233,42*7A


$GPRMC,000442.000,A,4851.4019,N,00221.0480,E,000.0,003.1,280510,,*04
$GPGGA,000442.000,4851.4019,N,00221.0480,E,1,3,0.0,-24.7,M,44.7,M,,*7F
$GPGSV,1,1,3,09,82,037,42,27,65,092,42,12,58,233,42*7A


$GPRMC,000442.000,A,4851.4019,N,00221.0480,E,000.0,003.1,280510,,*04
$GPGGA,000442.000,4851.4019,N,00221.0480,E,1,3,0.0,-24.7,M,44.7,M,,*7F
$GPGSV,1,1,3,09,82,037,42,27,65,092,42,12,58,233,42*7A


$GPRMC,000442.000,A,4851.4019,N,00221.0480,E,000.0,003.1,280510,,*04
$GPGGA,000442.000,4851.4019,N,00221.0480,E,1,3,0.0,-24.7,M,44.7,M,,*7F
$GPGSV,1,1,3,09,82,037,42,27,65,092,42,12,58,233,42*7A


$GPRMC,000442.000,A,4851.4019,N,00221.0480,E,000.0,003.1,280510,,*04
$GPGGA,000442.000,4851.4019,N,00221.0480,E,1,3,0.0,-24.7,M,44.7,M,,*7F
$GPGSV,1,1,3,09,82,037,42,27,65,092,42,12,58,233,42*7A


$GPRMC,000442.000,A,4851.4019,N,00221.0480,E,000.0,003.1,280510,,*04
$GPGGA,000442.000,4851.4019,N,00221.0480,E,1,3,0.0,-24.7,M,44.7,M,,*7F
$GPGSV,1,1,3,09,82,037,42,27,65,092,42,12,58,233,42*7A


$GPRMC,000442.000,A,4851.4019,N,00221.0480,E,000.0,003.1,280510,,*04
$GPGGA,000442.000,4851.4019,N,00221.0480,E,1,3,0.0,-24.7,M,44.7,M,,*7F
$GPGSV,1,1,3,09,82,037,42,27,65,092,42,12,58,233,42*7A


$GPRMC,000442.000,A,4851.4019,N,00221.0480,E,000.0,003.1,280510,,*04
$GPGGA,000442.000,4851.4019,N,00221.0480,E,1,3,0.0,-24.7,M,44.7,M,,*7F
$GPGSV,1,1,3,09,82,037,42,27,65,092,42,12,58,233,42*7A


$GPRMC,000442.000,A,4851.4019,N,00221.0480,E,000.0,003.1,280510,,*04
$GPGGA,000442.000,4851.4019,N,00221.0480,E,1,3,0.0,-24.7,M,44.7,M,,*7F
$GPGSV,1,1,3,09,82,037,42,27,65,092,42,12,58,233,42*7A


$GPRMC,000442.000,A,4851.4019,N,00221.0480,E,000.0,003.1,280510,,*04
$GPGGA,000442.000,4851.4019,N,00221.0480,E,1,3,0.0,-24.7,M,44.7,M,,*7F
$GPGSV,1,1,3,09,82,037,42,27,65,092,42,12,58,233,42*7A


$GPRMC,000442.000,A,4851.4019,N,00221.0480,E,000.0,003.1,280510,,*04
$GPGGA,000442.000,4851.4019,N,00221.0480,E,1,3,0.0,-24.7,M,44.7,M,,*7F
$GPGSV,1,1,3,09,82,037,42,27,65,092,42,12,58,233,42*7A


$GPRMC,000442.000,A,4851.4019,N,00221.0480,E,000.0,003.1,280510,,*04
$GPGGA,000442.000,4851.4019,N,00221.0480,E,1,3,0.0,-24.7,M,44.7,M,,*7F
$GPGSV,1,1,3,09,82,037,42,27,65,092,42,12,58,233,42*7A


$GPRMC,000442.000,A,4851.4019,N,00221.0480,E,000.0,003.1,280510,,*04
$GPGGA,000442.000,4851.4019,N,00221.0480,E,1,3,0.0,-24.7,M,44.7,M,,*7F
$GPGSV,1,1,3,09,82,037,42,27,65,092,42,12,58,233,42*7A


$GPRMC,000442.000,A,4851.4019,N,00221.0480,E,000.0,003.1,280510,,*04
$GPGGA,000442.000,4851.4019,N,00221.0480,E,1,3,0.0,-24.7,M,44.7,M,,*7F
$GPGSV,1,1,3,09,82,037,42,27,65,092,42,12,58,233,42*7A


$GPRMC,000442.000,A,4851.4019,N,00221.0480,E,000.0,003.1,280510,,*04
$GPGGA,000442.000,4851.4019,N,00221.0480,E,1,3,0.0,-24.7,M,44.7,M,,*7F
$GPGSV,1,1,3,09,82,037,42,27,65,092,42,12,58,233,42*7A


$GPRMC,000442.000,A,4851.4019,N,00221.0480,E,000.0,003.1,280510,,*04
$GPGGA,000442.000,4851.4019,N,00221.0480,E,1,3,0.0,-24.7,M,44.7,M,,*7F
$GPGSV,1,1,3,09,82,037,42,27,65,092,42,12,58,233,42*7A


$GPRMC,000442.000,A,4851.4019,N,00221.0480,E,000.0,003.1,280510,,*04
$GPGGA,000442.000,4851.4019,N,00221.0480,E,1,3,0.0,-24.7,M,44.7,M,,*7F
$GPGSV,1,1,3,09,82,037,42,27,65,092,42,12,58,233,42*7A


$GPRMC,000442.000,A,4851.4019,N,00221.0480,E,000.0,003.1,280510,,*04
$GPGGA,000442.000,4851.4019,N,00221.0480,E,1,3,0.0,-24.7,M,44.7,M,,*7F
$GPGSV,1,1,3,09,82,037,42,27,65,092,42,12,58,233,42*7A


$GPRMC,000442.000,A,4851.4019,N,00221.0480,E,000.0,003.1,280510,,*04
$GPGGA,000442.000,4851.4019,N,00221.0480,E,1,3,0.0,-24.7,M,44.7,M,,*7F
$GPGSV,1,1,3,09,82,037,42,27,65,092,42,12,58,233,42*7A


$GPRMC,000442.000,A,4851.4019,N,00221.0480,E,000.0,003.1,280510,,*04
$GPGGA,000442.000,4851.4019,N,00221.0480,E,1,3,0.0,-24.7,M,44.7,M,,*7F
$GPGSV,1,1,3,09,82,037,42,27,65,092,42,12,58,233,42*7A


$GPRMC,000442.000,A,4851.4019,N,00221.0480,E,000.0,003.1,280510,,*04
$GPGGA,000442.000,4851.4019,N,00221.0480,E,1,3,0.0,-24.7,M,44.7,M,,*7F
$GPGSV,1,1,3,09,82,037,42,27,65,092,42,12,58,233,42*7A


$GPRMC,000442.000,A,4851.4019,N,00221.0480,E,000.0,003.1,280510,,*04
$GPGGA,000442.000,4851.4019,N,00221.0480,E,1,3,0.0,-24.7,M,44.7,M,,*7F
$GPGSV,1,1,3,09,82,037,42,27,65,092,42,12,58,233,42*7A


$GPRMC,000442.000,A,4851.4019,N,00221.0480,E,000.0,003.1,280510,,*04
$GPGGA,000442.000,4851.4019,N,00221.0480,E,1,3,0.0,-24.7,M,44.7,M,,*7F
$GPGSV,1,1,3,09,82,037,42,27,65,092,42,12,58,233,42*7A


$GPRMC,000442.000,A,4851.4019,N,00221.0480,E,000.0,003.1,280510,,*04
$GPGGA,000442.000,4851.4019,N,00221.0480,E,1,3,0.0,-24.7,M,44.7,M,,*7F
$GPGSV,1,1,3,09,82,037,42,27,65,092,42,12,58,233,42*7A


$GPRMC,000442.000,A,4851.4019,N,00221.0480,E,000.0,003.1,280510,,*04
$GPGGA,000442.000,4851.4019,N,00221.0480,E,1,3,0.0,-24.7,M,44.7,M,,*7F
$GPGSV,1,1,3,09,82,037,42,27,65,092,42,12,58,233,42*7A


$GPRMC,000442.000,A,4851.4019,N,00221.0480,E,000.0,003.1,280510,,*04
$GPGGA,000442.000,4851.4019,N,00221.0480,E,1,3,0.0,-24.7,M,44.7,M,,*7F
$GPGSV,1,1,3,09,82,037,42,27,65,092,42,12,58,233,42*7A


$GPRMC,000442.000,A,4851.4019,N,00221.0480,E,000.0,003.1,280510,,*04
$GPGGA,000442.000,4851.4019,N,00221.0480,E,1,3,0.0,-24.7,M,44.7,M,,*7F
$GPGSV,1,1,3,09,82,037,42,27,65,092,42,12,58,233,42*7A


$GPRMC,000442.000,A,4851.4019,N,00221.0480,E,000.0,003.1,280510,,*04
$GPGGA,000442.000,4851.4019,N,00221.0480,E,1,3,0.0,-24.7,M,44.7,M,,*7F
$GPGSV,1,1,3,09,82,037,42,27,65,092,42,12,58,233,42*7A


$GPRMC,000442.000,A,4851.4019,N,00221.0480,E,000.0,003.1,280510,,*04
$GPGGA,000442.000,4851.4019,N,00221.0480,E,1,3,0.0,-24.7,M,44.7,M,,*7F
$GPGSV,1,1,3,09,82,037,42,27,65,092,42,12,58,233,42*7A


$GPRMC,000442.000,A,4851.4019,N,00221.0480,E,000.0,003.1,280510,,*04
$GPGGA,000442.000,4851.4019,N,00221.0480,E,1,3,0.0,-24.7,M,44.7,M,,*7F
$GPGSV,1,1,3,09,82,037,42,27,65,092,42,12,58,233,42*7A


$GPRMC,000442.000,A,4851.4019,N,00221.0480,E,000.0,003.1,280510,,*04
$GPGGA,000442.000,4851.4019,N,00221.0480,E,1,3,0.0,-24.7,M,44.7,M,,*7F
$GPGSV,1,1,3,09,82,037,42,27,65,092,42,12,58,233,42*7A


$GPRMC,000442.000,A,4851.4019,N,00221.0480,E,000.0,003.1,280510,,*04
$GPGGA,000442.000,4851.4019,N,00221.0480,E,1,3,0.0,-24.7,M,44.7,M,,*7F
$GPGSV,1,1,3,09,82,037,42,27,65,092,42,12,58,233,42*7A


$GPRMC,000442.000,A,4851.4019,N,00221.0480,E,000.0,003.1,280510,,*04
$GPGGA,000442.000,4851.4019,N,00221.0480,E,1,3,0.0,-24.7,M,44.7,M,,*7F
$GPGSV,1,1,3,09,82,037,42,27,65,092,42,12,58,233,42*7A


$GPRMC,000442.000,A,4851.4019,N,00221.0480,E,000.0,003.1,280510,,*04
$GPGGA,000442.000,4851.4019,N,00221.0480,E,1,3,0.0,-24.7,M,44.7,M,,*7F
$GPGSV,1,1,3,09,82,037,42,27,65,092,42,12,58,233,42*7A


$GPRMC,000442.000,A,4851.4019,N,00221.0480,E,000.0,003.1,280510,,*04
$GPGGA,000442.000,4851.4019,N,00221.0480,E,1,3,0.0,-24.7,M,44.7,M,,*7F
$GPGSV,1,1,3,09,82,037,42,27,65,092,42,12,58,233,42*7A


$GPRMC,000442.000,A,4851.4019,N,00221.0480,E,000.0,003.1,280510,,*04
$GPGGA,000442.000,4851.4019,N,00221.0480,E,1,3,0.0,-24.7,M,44.7,M,,*7F
$GPGSV,1,1,3,09,82,037,42,27,65,092,42,12,58,233,42*7A


$GPRMC,000442.000,A,4851.4019,N,00221.0480,E,000.0,003.1,280510,,*04
$GPGGA,000442.000,4851.4019,N,00221.0480,E,1,3,0.0,-24.7,M,44.7,M,,*7F
$GPGSV,1,1,3,09,82,037,42,27,65,092,42,12,58,233,42*7A


$GPRMC,000442.000,A,4851.4019,N,00221.0480,E,000.0,003.1,280510,,*04
$GPGGA,000442.000,4851.4019,N,00221.0480,E,1,3,0.0,-24.7,M,44.7,M,,*7F
$GPGSV,1,1,3,09,82,037,42,27,65,092,42,12,58,233,42*7A


$GPRMC,000442.000,A,4851.4019,N,00221.0480,E,000.0,003.1,280510,,*04
$GPGGA,000442.000,4851.4019,N,00221.0480,E,1,3,0.0,-24.7,M,44.7,M,,*7F
$GPGSV,1,1,3,09,82,037,42,27,65,092,42,12,58,233,42*7A


$GPRMC,000442.000,A,4851.4019,N,00221.0480,E,000.0,003.1,280510,,*04
$GPGGA,000442.000,4851.4019,N,00221.0480,E,1,3,0.0,-24.7,M,44.7,M,,*7F
$GPGSV,1,1,3,09,82,037,42,27,65,092,42,12,58,233,42*7A


$GPRMC,000442.000,A,4851.4019,N,00221.0480,E,000.0,003.1,280510,,*04
$GPGGA,000442.000,4851.4019,N,00221.0480,E,1,3,0.0,-24.7,M,44.7,M,,*7F
$GPGSV,1,1,3,09,82,037,42,27,65,092,42,12,58,233,42*7A


$GPRMC,000442.000,A,4851.4019,N,00221.0480,E,000.0,003.1,280510,,*04
$GPGGA,000442.000,4851.4019,N,00221.0480,E,1,3,0.0,-24.7,M,44.7,M,,*7F
$GPGSV,1,1,3,09,82,037,42,27,65,092,42,12,58,233,42*7A


$GPRMC,000442.000,A,4851.4019,N,00221.0480,E,000.0,003.1,280510,,*04
$GPGGA,000442.000,4851.4019,N,00221.0480,E,1,3,0.0,-24.7,M,44.7,M,,*7F
$GPGSV,1,1,3,09,82,037,42,27,65,092,42,12,58,233,42*7A


$GPRMC,000442.000,A,4851.4019,N,00221.0480,E,000.0,003.1,280510,,*04
$GPGGA,000442.000,4851.4019,N,00221.0480,E,1,3,0.0,-24.7,M,44.7,M,,*7F
$GPGSV,1,1,3,09,82,037,42,27,65,092,42,12,58,233,42*7A


$GPRMC,000442.000,A,4851.4019,N,00221.0480,E,000.0,003.1,280510,,*04
$GPGGA,000442.000,4851.4019,N,00221.0480,E,1,3,0.0,-24.7,M,44.7,M,,*7F
$GPGSV,1,1,3,09,82,037,42,27,65,092,42,12,58,233,42*7A


$GPRMC,000442.000,A,4851.4019,N,00221.0480,E,000.0,003.1,280510,,*04
$GPGGA,000442.000,4851.4019,N,00221.0480,E,1,3,0.0,-24.7,M,44.7,M,,*7F
$GPGSV,1,1,3,09,82,037,42,27,65,092,42,12,58,233,42*7A


$GPRMC,000442.000,A,4851.4019,N,00221.0480,E,000.0,003.1,280510,,*04
$GPGGA,000442.000,4851.4019,N,00221.0480,E,1,3,0.0,-24.7,M,44.7,M,,*7F
$GPGSV,1,1,3,09,82,037,42,27,65,092,42,12,58,233,42*7A


$GPRMC,000443.000,A,4851.4019,N,00221.0480,E,000.0,003.1,280510,,*05
$GPGGA,000443.000,4851.4019,N,00221.0480,E,1,4,0.0,-24.7,M,44.7,M,,*79
$GPGSV,1,1,4,09,82,037,42,27,65,092,42,12,58,233,42,15,38,173,42*41


$GPRMC,000443.000,A,4851.4019,N,00221.0480,E,000.0,003.1,280510,,*05
$GPGGA,000443.000,4851.4019,N,00221.0480,E,1,4,0.0,-24.7,M,44.7,M,,*79
$GPGSV,1,1,4,09,82,037,42,27,65,092,42,12,58,233,42,15,38,173,42*41


$GPRMC,000443.000,A,4851.4019,N,00221.0480,E,000.0,003.1,280510,,*05
$GPGGA,000443.000,4851.4019,N,00221.0480,E,1,4,0.0,-24.7,M,44.7,M,,*79
$GPGSV,1,1,4,09,82,037,42,27,65,092,42,12,58,233,42,15,38,173,42*41


$GPRMC,000443.000,A,4851.4019,N,00221.0480,E,000.0,003.1,280510,,*05
$GPGGA,000443.000,4851.4019,N,00221.0480,E,1,4,0.0,-24.7,M,44.7,M,,*79
$GPGSV,1,1,4,09,82,037,42,27,65,092,42,12,58,233,42,15,38,173,42*41


$GPRMC,000443.000,A,4851.4019,N,00221.0480,E,000.0,003.1,280510,,*05
$GPGGA,000443.000,4851.4019,N,00221.0480,E,1,4,0.0,-24.7,M,44.7,M,,*79
$GPGSV,1,1,4,09,82,037,42,27,65,092,42,12,58,233,42,15,38,173,42*41


$GPRMC,000443.000,A,4851.4019,N,00221.0480,E,000.0,003.1,280510,,*05
$GPGGA,000443.000,4851.4019,N,00221.0480,E,1,4,0.0,-24.7,M,44.7,M,,*79
$GPGSV,1,1,4,09,82,037,42,27,65,092,42,12,58,233,42,15,38,173,42*41


$GPRMC,000443.000,A,4851.4019,N,00221.0480,E,000.0,003.1,280510,,*05
$GPGGA,000443.000,4851.4019,N,00221.0480,E,1,4,0.0,-24.7,M,44.7,M,,*79
$GPGSV,1,1,4,09,82,037,42,27,65,092,42,12,58,233,42,15,38,173,42*41


$GPRMC,000443.000,A,4851.4019,N,00221.0480,E,000.0,003.1,280510,,*05
$GPGGA,000443.000,4851.4019,N,00221.0480,E,1,4,0.0,-24.7,M,44.7,M,,*79
$GPGSV,1,1,4,09,82,037,42,27,65,092,42,12,58,233,42,15,38,173,42*41


$GPRMC,000443.000,A,4851.4019,N,00221.0480,E,000.0,003.1,280510,,*05
$GPGGA,000443.000,4851.4019,N,00221.0480,E,1,4,0.0,-24.7,M,44.7,M,,*79
$GPGSV,1,1,4,09,82,037,42,27,65,092,42,12,58,233,42,15,38,173,42*41


$GPRMC,000443.000,A,4851.4019,N,00221.0480,E,000.0,003.1,280510,,*05
$GPGGA,000443.000,4851.4019,N,00221.0480,E,1,4,0.0,-24.7,M,44.7,M,,*79
$GPGSV,1,1,4,09,82,037,42,27,65,092,42,12,58,233,42,15,38,173,42*41


$GPRMC,000443.000,A,4851.4019,N,00221.0480,E,000.0,003.1,280510,,*05
$GPGGA,000443.000,4851.4019,N,00221.0480,E,1,4,0.0,-24.7,M,44.7,M,,*79
$GPGSV,1,1,4,09,82,037,42,27,65,092,42,12,58,233,42,15,38,173,42*41


$GPRMC,000443.000,A,4851.4019,N,00221.0480,E,000.0,003.1,280510,,*05
$GPGGA,000443.000,4851.4019,N,00221.0480,E,1,4,0.0,-24.7,M,44.7,M,,*79
$GPGSV,1,1,4,09,82,037,42,27,65,092,42,12,58,233,42,15,38,173,42*41


$GPRMC,000443.000,A,4851.4019,N,00221.0480,E,000.0,003.1,280510,,*05
$GPGGA,000443.000,4851.4019,N,00221.0480,E,1,4,0.0,-24.7,M,44.7,M,,*79
$GPGSV,1,1,4,09,82,037,42,27,65,092,42,12,58,233,42,15,38,173,42*41


$GPRMC,000443.000,A,4851.4019,N,00221.0480,E,000.0,003.1,280510,,*05
$GPGGA,000443.000,4851.4019,N,00221.0480,E,1,4,0.0,-24.7,M,44.7,M,,*79
$GPGSV,1,1,4,09,82,037,42,27,65,092,42,12,58,233,42,15,38,173,42*41


$GPRMC,000443.000,A,4851.4019,N,00221.0480,E,000.0,003.1,280510,,*05
$GPGGA,000443.000,4851.4019,N,00221.0480,E,1,4,0.0,-24.7,M,44.7,M,,*79
$GPGSV,1,1,4,09,82,037,42,27,65,092,42,12,58,233,42,15,38,173,42*41


$GPRMC,000443.000,A,4851.4019,N,00221.0480,E,000.0,003.1,280510,,*05
$GPGGA,000443.000,4851.4019,N,00221.0480,E,1,4,0.0,-24.7,M,44.7,M,,*79
$GPGSV,1,1,4,09,82,037,42,27,65,092,42,12,58,233,42,15,38,173,42*41


$GPRMC,000443.000,A,4851.4019,N,00221.0480,E,000.0,003.1,280510,,*05
$GPGGA,000443.000,4851.4019,N,00221.0480,E,1,4,0.0,-24.7,M,44.7,M,,*79
$GPGSV,1,1,4,09,82,037,42,27,65,092,42,12,58,233,42,15,38,173,42*41


$GPRMC,000443.000,A,4851.4019,N,00221.0480,E,000.0,003.1,280510,,*05
$GPGGA,000443.000,4851.4019,N,00221.0480,E,1,4,0.0,-24.7,M,44.7,M,,*79
$GPGSV,1,1,4,09,82,037,42,27,65,092,42,12,58,233,42,15,38,173,42*41


$GPRMC,000443.000,A,4851.4019,N,00221.0480,E,000.0,003.1,280510,,*05
$GPGGA,000443.000,4851.4019,N,00221.0480,E,1,4,0.0,-24.7,M,44.7,M,,*79
$GPGSV,1,1,4,09,82,037,42,27,65,092,42,12,58,233,42,15,38,173,42*41


$GPRMC,000443.000,A,4851.4019,N,00221.0480,E,000.0,003.1,280510,,*05
$GPGGA,000443.000,4851.4019,N,00221.0480,E,1,4,0.0,-24.7,M,44.7,M,,*79
$GPGSV,1,1,4,09,82,037,42,27,65,092,42,12,58,233,42,15,38,173,42*41


$GPRMC,000443.000,A,4851.4019,N,00221.0480,E,000.0,003.1,280510,,*05
$GPGGA,000443.000,4851.4019,N,00221.0480,E,1,4,0.0,-24.7,M,44.7,M,,*79
$GPGSV,1,1,4,09,82,037,42,27,65,092,42,12,58,233,42,15,38,173,42*41


$GPRMC,000443.000,A,4851.4019,N,00221.0480,E,000.0,003.1,280510,,*05
$GPGGA,000443.000,4851.4019,N,00221.0480,E,1,4,0.0,-24.7,M,44.7,M,,*79
$GPGSV,1,1,4,09,82,037,42,27,65,092,42,12,58,233,42,15,38,173,42*41


$GPRMC,000443.000,A,4851.4019,N,00221.0480,E,000.0,003.1,280510,,*05
$GPGGA,000443.000,4851.4019,N,00221.0480,E,1,4,0.0,-24.7,M,44.7,M,,*79
$GPGSV,1,1,4,09,82,037,42,27,65,092,42,12,58,233,42,15,38,173,42*41


$GPRMC,000443.000,A,4851.4019,N,00221.0480,E,000.0,003.1,280510,,*05
$GPGGA,000443.000,4851.4019,N,00221.0480,E,1,4,0.0,-24.7,M,44.7,M,,*79
$GPGSV,1,1,4,09,82,037,42,27,65,092,42,12,58,233,42,15,38,173,42*41


$GPRMC,000443.000,A,4851.4019,N,00221.0480,E,000.0,003.1,280510,,*05
$GPGGA,000443.000,4851.4019,N,00221.0480,E,1,4,0.0,-24.7,M,44.7,M,,*79
$GPGSV,1,1,4,09,82,037,42,27,65,092,42,12,58,233,42,15,38,173,42*41


$GPRMC,000443.000,A,4851.4019,N,00221.0480,E,000.0,003.1,280510,,*05
$GPGGA,000443.000,4851.4019,N,00221.0480,E,1,4,0.0,-24.7,M,44.7,M,,*79
$GPGSV,1,1,4,09,82,037,42,27,65,092,42,12,58,233,42,15,38,173,42*41


$GPRMC,000443.000,A,4851.4019,N,00221.0480,E,000.0,003.1,280510,,*05
$GPGGA,000443.000,4851.4019,N,00221.0480,E,1,4,0.0,-24.7,M,44.7,M,,*79
$GPGSV,1,1,4,09,82,037,42,27,65,092,42,12,58,233,42,15,38,173,42*41


$GPRMC,000443.000,A,4851.4019,N,00221.0480,E,000.0,003.1,280510,,*05
$GPGGA,000443.000,4851.4019,N,00221.0480,E,1,4,0.0,-24.7,M,44.7,M,,*79
$GPGSV,1,1,4,09,82,037,42,27,65,092,42,12,58,233,42,15,38,173,42*41


$GPRMC,000443.000,A,4851.4019,N,00221.0480,E,000.0,003.1,280510,,*05
$GPGGA,000443.000,4851.4019,N,00221.0480,E,1,4,0.0,-24.7,M,44.7,M,,*79
$GPGSV,1,1,4,09,82,037,42,27,65,092,42,12,58,233,42,15,38,173,42*41


$GPRMC,000443.000,A,4851.4019,N,00221.0480,E,000.0,003.1,280510,,*05
$GPGGA,000443.000,4851.4019,N,00221.0480,E,1,4,0.0,-24.7,M,44.7,M,,*79
$GPGSV,1,1,4,09,82,037,42,27,65,092,42,12,58,233,42,15,38,173,42*41


$GPRMC,000443.000,A,4851.4019,N,00221.0480,E,000.0,003.1,280510,,*05
$GPGGA,000443.000,4851.4019,N,00221.0480,E,1,4,0.0,-24.7,M,44.7,M,,*79
$GPGSV,1,1,4,09,82,037,42,27,65,092,42,12,58,233,42,15,38,173,42*41


$GPRMC,000443.000,A,4851.4019,N,00221.0480,E,000.0,003.1,280510,,*05
$GPGGA,000443.000,4851.4019,N,00221.0480,E,1,4,0.0,-24.7,M,44.7,M,,*79
$GPGSV,1,1,4,09,82,037,42,27,65,092,42,12,58,233,42,15,38,173,42*41


$GPRMC,000443.000,A,4851.4019,N,00221.0480,E,000.0,003.1,280510,,*05
$GPGGA,000443.000,4851.4019,N,00221.0480,E,1,4,0.0,-24.7,M,44.7,M,,*79
$GPGSV,1,1,4,09,82,037,42,27,65,092,42,12,58,233,42,15,38,173,42*41


$GPRMC,000443.000,A,4851.4019,N,00221.0480,E,000.0,003.1,280510,,*05
$GPGGA,000443.000,4851.4019,N,00221.0480,E,1,4,0.0,-24.7,M,44.7,M,,*79
$GPGSV,1,1,4,09,82,037,42,27,65,092,42,12,58,233,42,15,38,173,42*41


$GPRMC,000443.000,A,4851.4019,N,00221.0480,E,000.0,003.1,280510,,*05
$GPGGA,000443.000,4851.4019,N,00221.0480,E,1,4,0.0,-24.7,M,44.7,M,,*79
$GPGSV,1,1,4,09,82,037,42,27,65,092,42,12,58,233,42,15,38,173,42*41


$GPRMC,000443.000,A,4851.4019,N,00221.0480,E,000.0,003.1,280510,,*05
$GPGGA,000443.000,4851.4019,N,00221.0480,E,1,4,0.0,-24.7,M,44.7,M,,*79
$GPGSV,1,1,4,09,82,037,42,27,65,092,42,12,58,233,42,15,38,173,42*41


$GPRMC,000443.000,A,4851.4019,N,00221.0480,E,000.0,003.1,280510,,*05
$GPGGA,000443.000,4851.4019,N,00221.0480,E,1,4,0.0,-24.7,M,44.7,M,,*79
$GPGSV,1,1,4,09,82,037,42,27,65,092,42,12,58,233,42,15,38,173,42*41


$GPRMC,000443.000,A,4851.4019,N,00221.0480,E,000.0,003.1,280510,,*05
$GPGGA,000443.000,4851.4019,N,00221.0480,E,1,4,0.0,-24.7,M,44.7,M,,*79
$GPGSV,1,1,4,09,82,037,42,27,65,092,42,12,58,233,42,15,38,173,42*41


$GPRMC,000443.000,A,4851.4019,N,00221.0480,E,000.0,003.1,280510,,*05
$GPGGA,000443.000,4851.4019,N,00221.0480,E,1,4,0.0,-24.7,M,44.7,M,,*79
$GPGSV,1,1,4,09,82,037,42,27,65,092,42,12,58,233,42,15,38,173,42*41


$GPRMC,000443.000,A,4851.4019,N,00221.0480,E,000.0,003.1,280510,,*05
$GPGGA,000443.000,4851.4019,N,00221.0480,E,1,4,0.0,-24.7,M,44.7,M,,*79
$GPGSV,1,1,4,09,82,037,42,27,65,092,42,12,58,233,42,15,38,173,42*41


$GPRMC,000443.000,A,4851.4019,N,00221.0480,E,000.0,003.1,280510,,*05
$GPGGA,000443.000,4851.4019,N,00221.0480,E,1,4,0.0,-24.7,M,44.7,M,,*79
$GPGSV,1,1,4,09,82,037,42,27,65,092,42,12,58,233,42,15,38,173,42*41


$GPRMC,000443.000,A,4851.4019,N,00221.0480,E,000.0,003.1,280510,,*05
$GPGGA,000443.000,4851.4019,N,00221.0480,E,1,4,0.0,-24.7,M,44.7,M,,*79
$GPGSV,1,1,4,09,82,037,42,27,65,092,42,12,58,233,42,15,38,173,42*41


$GPRMC,000443.000,A,4851.4019,N,00221.0480,E,000.0,003.1,280510,,*05
$GPGGA,000443.000,4851.4019,N,00221.0480,E,1,4,0.0,-24.7,M,44.7,M,,*79
$GPGSV,1,1,4,09,82,037,42,27,65,092,42,12,58,233,42,15,38,173,42*41


$GPRMC,000443.000,A,4851.4019,N,00221.0480,E,000.0,003.1,280510,,*05
$GPGGA,000443.000,4851.4019,N,00221.0480,E,1,4,0.0,-24.7,M,44.7,M,,*79
$GPGSV,1,1,4,09,82,037,42,27,65,092,42,12,58,233,42,15,38,173,42*41


$GPRMC,000443.000,A,4851.4019,N,00221.0480,E,000.0,003.1,280510,,*05
$GPGGA,000443.000,4851.4019,N,00221.0480,E,1,4,0.0,-24.7,M,44.7,M,,*79
$GPGSV,1,1,4,09,82,037,42,27,65,092,42,12,58,233,42,15,38,173,42*41


$GPRMC,000443.000,A,4851.4019,N,00221.0480,E,000.0,003.1,280510,,*05
$GPGGA,000443.000,4851.4019,N,00221.0480,E,1,4,0.0,-24.7,M,44.7,M,,*79
$GPGSV,1,1,4,09,82,037,42,27,65,092,42,12,58,233,42,15,38,173,42*41


$GPRMC,000443.000,A,4851.4019,N,00221.0480,E,000.0,003.1,280510,,*05
$GPGGA,000443.000,4851.4019,N,00221.0480,E,1,4,0.0,-24.7,M,44.7,M,,*79
$GPGSV,1,1,4,09,82,037,42,27,65,092,42,12,58,233,42,15,38,173,42*41


$GPRMC,000443.000,A,4851.4019,N,00221.0480,E,000.0,003.1,280510,,*05
$GPGGA,000443.000,4851.4019,N,00221.0480,E,1,4,0.0,-24.7,M,44.7,M,,*79
$GPGSV,1,1,4,09,82,037,42,27,65,092,42,12,58,233,42,15,38,173,42*41


$GPRMC,000443.000,A,4851.4019,N,00221.0480,E,000.0,003.1,280510,,*05
$GPGGA,000443.000,4851.4019,N,00221.0480,E,1,4,0.0,-24.7,M,44.7,M,,*79
$GPGSV,1,1,4,09,82,037,42,27,65,092,42,12,58,233,42,15,38,173,42*41


$GPRMC,000443.000,A,4851.4019,N,00221.0480,E,000.0,003.1,280510,,*05
$GPGGA,000443.000,4851.4019,N,00221.0480,E,1,4,0.0,-24.7,M,44.7,M,,*79
$GPGSV,1,1,4,09,82,037,42,27,65,092,42,12,58,233,42,15,38,173,42*41


$GPRMC,000443.000,A,4851.4019,N,00221.0480,E,000.0,003.1,280510,,*05
$GPGGA,000443.000,4851.4019,N,00221.0480,E,1,4,0.0,-24.7,M,44.7,M,,*79
$GPGSV,1,1,4,09,82,037,42,27,65,092,42,12,58,233,42,15,38,173,42*41


$GPRMC,000443.000,A,4851.4019,N,00221.0480,E,000.0,003.1,280510,,*05
$GPGGA,000443.000,4851.4019,N,00221.0480,E,1,4,0.0,-24.7,M,44.7,M,,*79
$GPGSV,1,1,4,09,82,037,42,27,65,092,42,12,58,233,42,15,38,173,42*41


$GPRMC,000444.000,A,4851.4019,N,00221.0480,E,000.0,003.1,280510,,*02
$GPGGA,000444.000,4851.4019,N,00221.0480,E,1,4,0.0,-24.7,M,44.7,M,,*7E
$GPGSV,1,1,4,09,82,037,42,27,65,092,42,12,58,233,42,15,38,173,42*41


$GPRMC,000444.000,A,4851.4019,N,00221.0480,E,000.0,003.1,280510,,*02
$GPGGA,000444.000,4851.4019,N,00221.0480,E,1,4,0.0,-24.7,M,44.7,M,,*7E
$GPGSV,1,1,4,09,82,037,42,27,65,092,42,12,58,233,42,15,38,173,42*41


$GPRMC,000444.000,A,4851.4019,N,00221.0480,E,000.0,003.1,280510,,*02
$GPGGA,000444.000,4851.4019,N,00221.0480,E,1,4,0.0,-24.7,M,44.7,M,,*7E
$GPGSV,1,1,4,09,82,037,42,27,65,092,42,12,58,233,42,15,38,173,42*41


$GPRMC,000444.000,A,4851.4019,N,00221.0480,E,000.0,003.1,280510,,*02
$GPGGA,000444.000,4851.4019,N,00221.0480,E,1,4,0.0,-24.7,M,44.7,M,,*7E
$GPGSV,1,1,4,09,82,037,42,27,65,092,42,12,58,233,42,15,38,173,42*41


$GPRMC,000444.000,A,4851.4019,N,00221.0480,E,000.0,003.1,280510,,*02
$GPGGA,000444.000,4851.4019,N,00221.0480,E,1,4,0.0,-24.7,M,44.7,M,,*7E
$GPGSV,1,1,4,09,82,037,42,27,65,092,42,12,58,233,42,15,38,173,42*41


$GPRMC,000444.000,A,4851.4019,N,00221.0480,E,000.0,003.1,280510,,*02
$GPGGA,000444.000,4851.4019,N,00221.0480,E,1,4,0.0,-24.7,M,44.7,M,,*7E
$GPGSV,1,1,4,09,82,037,42,27,65,092,42,12,58,233,42,15,38,173,42*41


$GPRMC,000444.000,A,4851.4019,N,00221.0480,E,000.0,003.1,280510,,*02
$GPGGA,000444.000,4851.4019,N,00221.0480,E,1,4,0.0,-24.7,M,44.7,M,,*7E
$GPGSV,1,1,4,09,82,037,42,27,65,092,42,12,58,233,42,15,38,173,42*41


$GPRMC,000444.000,A,4851.4019,N,00221.0480,E,000.0,003.1,280510,,*02
$GPGGA,000444.000,4851.4019,N,00221.0480,E,1,4,0.0,-24.7,M,44.7,M,,*7E
$GPGSV,1,1,4,09,82,037,42,27,65,092,42,12,58,233,42,15,38,173,42*41


$GPRMC,000444.000,A,4851.4019,N,00221.0480,E,000.0,003.1,280510,,*02
$GPGGA,000444.000,4851.4019,N,00221.0480,E,1,4,0.0,-24.7,M,44.7,M,,*7E
$GPGSV,1,1,4,09,82,037,42,27,65,092,42,12,58,233,42,15,38,173,42*41


$GPRMC,000444.000,A,4851.4019,N,00221.0480,E,000.0,003.1,280510,,*02
$GPGGA,000444.000,4851.4019,N,00221.0480,E,1,4,0.0,-24.7,M,44.7,M,,*7E
$GPGSV,1,1,4,09,82,037,42,27,65,092,42,12,58,233,42,15,38,173,42*41


$GPRMC,000444.000,A,4851.4019,N,00221.0480,E,000.0,003.1,280510,,*02
$GPGGA,000444.000,4851.4019,N,00221.0480,E,1,4,0.0,-24.7,M,44.7,M,,*7E
$GPGSV,1,1,4,09,82,037,42,27,65,092,42,12,58,233,42,15,38,173,42*41


$GPRMC,000444.000,A,4851.4019,N,00221.0480,E,000.0,003.1,280510,,*02
$GPGGA,000444.000,4851.4019,N,00221.0480,E,1,4,0.0,-24.7,M,44.7,M,,*7E
$GPGSV,1,1,4,09,82,037,42,27,65,092,42,12,58,233,42,15,38,173,42*41


$GPRMC,000444.000,A,4851.4019,N,00221.0480,E,000.0,003.1,280510,,*02
$GPGGA,000444.000,4851.4019,N,00221.0480,E,1,4,0.0,-24.7,M,44.7,M,,*7E
$GPGSV,1,1,4,09,82,037,42,27,65,092,42,12,58,233,42,15,38,173,42*41


$GPRMC,000444.000,A,4851.4019,N,00221.0480,E,000.0,003.1,280510,,*02
$GPGGA,000444.000,4851.4019,N,00221.0480,E,1,4,0.0,-24.7,M,44.7,M,,*7E
$GPGSV,1,1,4,09,82,037,42,27,65,092,42,12,58,233,42,15,38,173,42*41


$GPRMC,000444.000,A,4851.4019,N,00221.0480,E,000.0,003.1,280510,,*02
$GPGGA,000444.000,4851.4019,N,00221.0480,E,1,4,0.0,-24.7,M,44.7,M,,*7E
$GPGSV,1,1,4,09,82,037,42,27,65,092,42,12,58,233,42,15,38,173,42*41


$GPRMC,000444.000,A,4851.4019,N,00221.0480,E,000.0,003.1,280510,,*02
$GPGGA,000444.000,4851.4019,N,00221.0480,E,1,4,0.0,-24.7,M,44.7,M,,*7E
$GPGSV,1,1,4,09,82,037,42,27,65,092,42,12,58,233,42,15,38,173,42*41


$GPRMC,000444.000,A,4851.4019,N,00221.0480,E,000.0,003.1,280510,,*02
$GPGGA,000444.000,4851.4019,N,00221.0480,E,1,4,0.0,-24.7,M,44.7,M,,*7E
$GPGSV,1,1,4,09,82,037,42,27,65,092,42,12,58,233,42,15,38,173,42*41


$GPRMC,000444.000,A,4851.4019,N,00221.0480,E,000.0,003.1,280510,,*02
$GPGGA,000444.000,4851.4019,N,00221.0480,E,1,4,0.0,-24.7,M,44.7,M,,*7E
$GPGSV,1,1,4,09,82,037,42,27,65,092,42,12,58,233,42,15,38,173,42*41


$GPRMC,000444.000,A,4851.4019,N,00221.0480,E,000.0,003.1,280510,,*02
$GPGGA,000444.000,4851.4019,N,00221.0480,E,1,4,0.0,-24.7,M,44.7,M,,*7E
$GPGSV,1,1,4,09,82,037,42,27,65,092,42,12,58,233,42,15,38,173,42*41


$GPRMC,000444.000,A,4851.4019,N,00221.0480,E,000.0,003.1,280510,,*02
$GPGGA,000444.000,4851.4019,N,00221.0480,E,1,4,0.0,-24.7,M,44.7,M,,*7E
$GPGSV,1,1,4,09,82,037,42,27,65,092,42,12,58,233,42,15,38,173,42*41


$GPRMC,000444.000,A,4851.4019,N,00221.0480,E,000.0,003.1,280510,,*02
$GPGGA,000444.000,4851.4019,N,00221.0480,E,1,4,0.0,-24.7,M,44.7,M,,*7E
$GPGSV,1,1,4,09,82,037,42,27,65,092,42,12,58,233,42,15,38,173,42*41


$GPRMC,000444.000,A,4851.4019,N,00221.0480,E,000.0,003.1,280510,,*02
$GPGGA,000444.000,4851.4019,N,00221.0480,E,1,4,0.0,-24.7,M,44.7,M,,*7E
$GPGSV,1,1,4,09,82,037,42,27,65,092,42,12,58,233,42,15,38,173,42*41


$GPRMC,000444.000,A,4851.4019,N,00221.0480,E,000.0,003.1,280510,,*02
$GPGGA,000444.000,4851.4019,N,00221.0480,E,1,4,0.0,-24.7,M,44.7,M,,*7E
$GPGSV,1,1,4,09,82,037,42,27,65,092,42,12,58,233,42,15,38,173,42*41


$GPRMC,000444.000,A,4851.4019,N,00221.0480,E,000.0,003.1,280510,,*02
$GPGGA,000444.000,4851.4019,N,00221.0480,E,1,4,0.0,-24.7,M,44.7,M,,*7E
$GPGSV,1,1,4,09,82,037,42,27,65,092,42,12,58,233,42,15,38,173,42*41


$GPRMC,000444.000,A,4851.4019,N,00221.0480,E,000.0,003.1,280510,,*02
$GPGGA,000444.000,4851.4019,N,00221.0480,E,1,4,0.0,-24.7,M,44.7,M,,*7E
$GPGSV,1,1,4,09,82,037,42,27,65,092,42,12,58,233,42,15,38,173,42*41


$GPRMC,000444.000,A,4851.4019,N,00221.0480,E,000.0,003.1,280510,,*02
$GPGGA,000444.000,4851.4019,N,00221.0480,E,1,4,0.0,-24.7,M,44.7,M,,*7E
$GPGSV,1,1,4,09,82,037,42,27,65,092,42,12,58,233,42,15,38,173,42*41


$GPRMC,000444.000,A,4851.4019,N,00221.0480,E,000.0,003.1,280510,,*02
$GPGGA,000444.000,4851.4019,N,00221.0480,E,1,4,0.0,-24.7,M,44.7,M,,*7E
$GPGSV,1,1,4,09,82,037,42,27,65,092,42,12,58,233,42,15,38,173,42*41


$GPRMC,000444.000,A,4851.4019,N,00221.0480,E,000.0,003.1,280510,,*02
$GPGGA,000444.000,4851.4019,N,00221.0480,E,1,4,0.0,-24.7,M,44.7,M,,*7E
$GPGSV,1,1,4,09,82,037,42,27,65,092,42,12,58,233,42,15,38,173,42*41


$GPRMC,000444.000,A,4851.4019,N,00221.0480,E,000.0,003.1,280510,,*02
$GPGGA,000444.000,4851.4019,N,00221.0480,E,1,4,0.0,-24.7,M,44.7,M,,*7E
$GPGSV,1,1,4,09,82,037,42,27,65,092,42,12,58,233,42,15,38,173,42*41


$GPRMC,000444.000,A,4851.4019,N,00221.0480,E,000.0,003.1,280510,,*02
$GPGGA,000444.000,4851.4019,N,00221.0480,E,1,4,0.0,-24.7,M,44.7,M,,*7E
$GPGSV,1,1,4,09,82,037,42,27,65,092,42,12,58,233,42,15,38,173,42*41


$GPRMC,000444.000,A,4851.4019,N,00221.0480,E,000.0,003.1,280510,,*02
$GPGGA,000444.000,4851.4019,N,00221.0480,E,1,4,0.0,-24.7,M,44.7,M,,*7E
$GPGSV,1,1,4,09,82,037,42,27,65,092,42,12,58,233,42,15,38,173,42*41


$GPRMC,000444.000,A,4851.4019,N,00221.0480,E,000.0,003.1,280510,,*02
$GPGGA,000444.000,4851.4019,N,00221.0480,E,1,4,0.0,-24.7,M,44.7,M,,*7E
$GPGSV,1,1,4,09,82,037,42,27,65,092,42,12,58,233,42,15,38,173,42*41


$GPRMC,000444.000,A,4851.4019,N,00221.0480,E,000.0,003.1,280510,,*02
$GPGGA,000444.000,4851.4019,N,00221.0480,E,1,4,0.0,-24.7,M,44.7,M,,*7E
$GPGSV,1,1,4,09,82,037,42,27,65,092,42,12,58,233,42,15,38,173,42*41


$GPRMC,000444.000,A,4851.4019,N,00221.0480,E,000.0,003.1,280510,,*02
$GPGGA,000444.000,4851.4019,N,00221.0480,E,1,4,0.0,-24.7,M,44.7,M,,*7E
$GPGSV,1,1,4,09,82,037,42,27,65,092,42,12,58,233,42,15,38,173,42*41


$GPRMC,000444.000,A,4851.4019,N,00221.0480,E,000.0,003.1,280510,,*02
$GPGGA,000444.000,4851.4019,N,00221.0480,E,1,4,0.0,-24.7,M,44.7,M,,*7E
$GPGSV,1,1,4,09,82,037,42,27,65,092,42,12,58,233,42,15,38,173,42*41


$GPRMC,000444.000,A,4851.4019,N,00221.0480,E,000.0,003.1,280510,,*02
$GPGGA,000444.000,4851.4019,N,00221.0480,E,1,4,0.0,-24.7,M,44.7,M,,*7E
$GPGSV,1,1,4,09,82,037,42,27,65,092,42,12,58,233,42,15,38,173,42*41


$GPRMC,000444.000,A,4851.4019,N,00221.0480,E,000.0,003.1,280510,,*02
$GPGGA,000444.000,4851.4019,N,00221.0480,E,1,4,0.0,-24.7,M,44.7,M,,*7E
$GPGSV,1,1,4,09,82,037,42,27,65,092,42,12,58,233,42,15,38,173,42*41


$GPRMC,000444.000,A,4851.4019,N,00221.0480,E,000.0,003.1,280510,,*02
$GPGGA,000444.000,4851.4019,N,00221.0480,E,1,4,0.0,-24.7,M,44.7,M,,*7E
$GPGSV,1,1,4,09,82,037,42,27,65,092,42,12,58,233,42,15,38,173,42*41


$GPRMC,000444.000,A,4851.4019,N,00221.0480,E,000.0,003.1,280510,,*02
$GPGGA,000444.000,4851.4019,N,00221.0480,E,1,4,0.0,-24.7,M,44.7,M,,*7E
$GPGSV,1,1,4,09,82,037,42,27,65,092,42,12,58,233,42,15,38,173,42*41


$GPRMC,000444.000,A,4851.4019,N,00221.0480,E,000.0,003.1,280510,,*02
$GPGGA,000444.000,4851.4019,N,00221.0480,E,1,4,0.0,-24.7,M,44.7,M,,*7E
$GPGSV,1,1,4,09,82,037,42,27,65,092,42,12,58,233,42,15,38,173,42*41


$GPRMC,000444.000,A,4851.4019,N,00221.0480,E,000.0,003.1,280510,,*02
$GPGGA,000444.000,4851.4019,N,00221.0480,E,1,4,0.0,-24.7,M,44.7,M,,*7E
$GPGSV,1,1,4,09,82,037,42,27,65,092,42,12,58,233,42,15,38,173,42*41


$GPRMC,000444.000,A,4851.4019,N,00221.0480,E,000.0,003.1,280510,,*02
$GPGGA,000444.000,4851.4019,N,00221.0480,E,1,4,0.0,-24.7,M,44.7,M,,*7E
$GPGSV,1,1,4,09,82,037,42,27,65,092,42,12,58,233,42,15,38,173,42*41


$GPRMC,000444.000,A,4851.4019,N,00221.0480,E,000.0,003.1,280510,,*02
$GPGGA,000444.000,4851.4019,N,00221.0480,E,1,4,0.0,-24.7,M,44.7,M,,*7E
$GPGSV,1,1,4,09,82,037,42,27,65,092,42,12,58,233,42,15,38,173,42*41


$GPRMC,000444.000,A,4851.4019,N,00221.0480,E,000.0,003.1,280510,,*02
$GPGGA,000444.000,4851.4019,N,00221.0480,E,1,4,0.0,-24.7,M,44.7,M,,*7E
$GPGSV,1,1,4,09,82,037,42,27,65,092,42,12,58,233,42,15,38,173,42*41


$GPRMC,000444.000,A,4851.4019,N,00221.0480,E,000.0,003.1,280510,,*02
$GPGGA,000444.000,4851.4019,N,00221.0480,E,1,4,0.0,-24.7,M,44.7,M,,*7E
$GPGSV,1,1,4,09,82,037,42,27,65,092,42,12,58,233,42,15,38,173,42*41


$GPRMC,000444.000,A,4851.4019,N,00221.0480,E,000.0,003.1,280510,,*02
$GPGGA,000444.000,4851.4019,N,00221.0480,E,1,4,0.0,-24.7,M,44.7,M,,*7E
$GPGSV,1,1,4,09,82,037,42,27,65,092,42,12,58,233,42,15,38,173,42*41


$GPRMC,000444.000,A,4851.4019,N,00221.0480,E,000.0,003.1,280510,,*02
$GPGGA,000444.000,4851.4019,N,00221.0480,E,1,4,0.0,-24.7,M,44.7,M,,*7E
$GPGSV,1,1,4,09,82,037,42,27,65,092,42,12,58,233,42,15,38,173,42*41


$GPRMC,000444.000,A,4851.4019,N,00221.0480,E,000.0,003.1,280510,,*02
$GPGGA,000444.000,4851.4019,N,00221.0480,E,1,4,0.0,-24.7,M,44.7,M,,*7E
$GPGSV,1,1,4,09,82,037,42,27,65,092,42,12,58,233,42,15,38,173,42*41


$GPRMC,000444.000,A,4851.4019,N,00221.0480,E,000.0,003.1,280510,,*02
$GPGGA,000444.000,4851.4019,N,00221.0480,E,1,4,0.0,-24.7,M,44.7,M,,*7E
$GPGSV,1,1,4,09,82,037,42,27,65,092,42,12,58,233,42,15,38,173,42*41


$GPRMC,000444.000,A,4851.4019,N,00221.0480,E,000.0,003.1,280510,,*02
$GPGGA,000444.000,4851.4019,N,00221.0480,E,1,4,0.0,-24.7,M,44.7,M,,*7E
$GPGSV,1,1,4,09,82,037,42,27,65,092,42,12,58,233,42,15,38,173,42*41


$GPRMC,000444.000,A,4851.4019,N,00221.0480,E,000.0,003.1,280510,,*02
$GPGGA,000444.000,4851.4019,N,00221.0480,E,1,4,0.0,-24.7,M,44.7,M,,*7E
$GPGSV,1,1,4,09,82,037,42,27,65,092,42,12,58,233,42,15,38,173,42*41


$GPRMC,000445.000,A,4851.4019,N,00221.0480,E,000.0,003.1,280510,,*03
$GPGGA,000445.000,4851.4019,N,00221.0480,E,1,4,0.0,-24.7,M,44.7,M,,*7F
$GPGSV,1,1,4,09,82,037,42,27,65,092,42,12,58,233,42,15,38,173,42*41


$GPRMC,000445.000,A,4851.4019,N,00221.0480,E,000.0,003.1,280510,,*03
$GPGGA,000445.000,4851.4019,N,00221.0480,E,1,4,0.0,-24.7,M,44.7,M,,*7F
$GPGSV,1,1,4,09,82,037,42,27,65,092,42,12,58,233,42,15,38,173,42*41


$GPRMC,000445.000,A,4851.4019,N,00221.0480,E,000.0,003.1,280510,,*03
$GPGGA,000445.000,4851.4019,N,00221.0480,E,1,4,0.0,-24.7,M,44.7,M,,*7F
$GPGSV,1,1,4,09,82,037,42,27,65,092,42,12,58,233,42,15,38,173,42*41


$GPRMC,000445.000,A,4851.4019,N,00221.0480,E,000.0,003.1,280510,,*03
$GPGGA,000445.000,4851.4019,N,00221.0480,E,1,4,0.0,-24.7,M,44.7,M,,*7F
$GPGSV,1,1,4,09,82,037,42,27,65,092,42,12,58,233,42,15,38,173,42*41


$GPRMC,000445.000,A,4851.4019,N,00221.0480,E,000.0,003.1,280510,,*03
$GPGGA,000445.000,4851.4019,N,00221.0480,E,1,4,0.0,-24.7,M,44.7,M,,*7F
$GPGSV,1,1,4,09,82,037,42,27,65,092,42,12,58,233,42,15,38,173,42*41


$GPRMC,000445.000,A,4851.4019,N,00221.0480,E,000.0,003.1,280510,,*03
$GPGGA,000445.000,4851.4019,N,00221.0480,E,1,4,0.0,-24.7,M,44.7,M,,*7F
$GPGSV,1,1,4,09,82,037,42,27,65,092,42,12,58,233,42,15,38,173,42*41


$GPRMC,000445.000,A,4851.4019,N,00221.0480,E,000.0,003.1,280510,,*03
$GPGGA,000445.000,4851.4019,N,00221.0480,E,1,4,0.0,-24.7,M,44.7,M,,*7F
$GPGSV,1,1,4,09,82,037,42,27,65,092,42,12,58,233,42,15,38,173,42*41


$GPRMC,000445.000,A,4851.4019,N,00221.0480,E,000.0,003.1,280510,,*03
$GPGGA,000445.000,4851.4019,N,00221.0480,E,1,4,0.0,-24.7,M,44.7,M,,*7F
$GPGSV,1,1,4,09,82,037,42,27,65,092,42,12,58,233,42,15,38,173,42*41


$GPRMC,000445.000,A,4851.4019,N,00221.0480,E,000.0,003.1,280510,,*03
$GPGGA,000445.000,4851.4019,N,00221.0480,E,1,4,0.0,-24.7,M,44.7,M,,*7F
$GPGSV,1,1,4,09,82,037,42,27,65,092,42,12,58,233,42,15,38,173,42*41


$GPRMC,000445.000,A,4851.4019,N,00221.0480,E,000.0,003.1,280510,,*03
$GPGGA,000445.000,4851.4019,N,00221.0480,E,1,4,0.0,-24.7,M,44.7,M,,*7F
$GPGSV,1,1,4,09,82,037,42,27,65,092,42,12,58,233,42,15,38,173,42*41


$GPRMC,000445.000,A,4851.4019,N,00221.0480,E,000.0,003.1,280510,,*03
$GPGGA,000445.000,4851.4019,N,00221.0480,E,1,4,0.0,-24.7,M,44.7,M,,*7F
$GPGSV,1,1,4,09,82,037,42,27,65,092,42,12,58,233,42,15,38,173,42*41


$GPRMC,000445.000,A,4851.4019,N,00221.0480,E,000.0,003.1,280510,,*03
$GPGGA,000445.000,4851.4019,N,00221.0480,E,1,4,0.0,-24.7,M,44.7,M,,*7F
$GPGSV,1,1,4,09,82,037,42,27,65,092,42,12,58,233,42,15,38,173,42*41


$GPRMC,000445.000,A,4851.4019,N,00221.0480,E,000.0,003.1,280510,,*03
$GPGGA,000445.000,4851.4019,N,00221.0480,E,1,4,0.0,-24.7,M,44.7,M,,*7F
$GPGSV,1,1,4,09,82,037,42,27,65,092,42,12,58,233,42,15,38,173,42*41


$GPRMC,000445.000,A,4851.4019,N,00221.0480,E,000.0,003.1,280510,,*03
$GPGGA,000445.000,4851.4019,N,00221.0480,E,1,4,0.0,-24.7,M,44.7,M,,*7F
$GPGSV,1,1,4,09,82,037,42,27,65,092,42,12,58,233,42,15,38,173,42*41


$GPRMC,000445.000,A,4851.4019,N,00221.0480,E,000.0,003.1,280510,,*03
$GPGGA,000445.000,4851.4019,N,00221.0480,E,1,4,0.0,-24.7,M,44.7,M,,*7F
$GPGSV,1,1,4,09,82,037,42,27,65,092,42,12,58,233,42,15,38,173,42*41


$GPRMC,000445.000,A,4851.4019,N,00221.0480,E,000.0,003.1,280510,,*03
$GPGGA,000445.000,4851.4019,N,00221.0480,E,1,4,0.0,-24.7,M,44.7,M,,*7F
$GPGSV,1,1,4,09,82,037,42,27,65,092,42,12,58,233,42,15,38,173,42*41


$GPRMC,000445.000,A,4851.4019,N,00221.0480,E,000.0,003.1,280510,,*03
$GPGGA,000445.000,4851.4019,N,00221.0480,E,1,4,0.0,-24.7,M,44.7,M,,*7F
$GPGSV,1,1,4,09,82,037,42,27,65,092,42,12,58,233,42,15,38,173,42*41


$GPRMC,000445.000,A,4851.4019,N,00221.0480,E,000.0,003.1,280510,,*03
$GPGGA,000445.000,4851.4019,N,00221.0480,E,1,4,0.0,-24.7,M,44.7,M,,*7F
$GPGSV,1,1,4,09,82,037,42,27,65,092,42,12,58,233,42,15,38,173,42*41


$GPRMC,000445.000,A,4851.4019,N,00221.0480,E,000.0,003.1,280510,,*03
$GPGGA,000445.000,4851.4019,N,00221.0480,E,1,4,0.0,-24.7,M,44.7,M,,*7F
$GPGSV,1,1,4,09,82,037,42,27,65,092,42,12,58,233,42,15,38,173,42*41


$GPRMC,000445.000,A,4851.4019,N,00221.0480,E,000.0,003.1,280510,,*03
$GPGGA,000445.000,4851.4019,N,00221.0480,E,1,4,0.0,-24.7,M,44.7,M,,*7F
$GPGSV,1,1,4,09,82,037,42,27,65,092,42,12,58,233,42,15,38,173,42*41


$GPRMC,000445.000,A,4851.4019,N,00221.0480,E,000.0,003.1,280510,,*03
$GPGGA,000445.000,4851.4019,N,00221.0480,E,1,4,0.0,-24.7,M,44.7,M,,*7F
$GPGSV,1,1,4,09,82,037,42,27,65,092,42,12,58,233,42,15,38,173,42*41


$GPRMC,000445.000,A,4851.4019,N,00221.0480,E,000.0,003.1,280510,,*03
$GPGGA,000445.000,4851.4019,N,00221.0480,E,1,4,0.0,-24.7,M,44.7,M,,*7F
$GPGSV,1,1,4,09,82,037,42,27,65,092,42,12,58,233,42,15,38,173,42*41


$GPRMC,000445.000,A,4851.4019,N,00221.0480,E,000.0,003.1,280510,,*03
$GPGGA,000445.000,4851.4019,N,00221.0480,E,1,4,0.0,-24.7,M,44.7,M,,*7F
$GPGSV,1,1,4,09,82,037,42,27,65,092,42,12,58,233,42,15,38,173,42*41


$GPRMC,000445.000,A,4851.4019,N,00221.0480,E,000.0,003.1,280510,,*03
$GPGGA,000445.000,4851.4019,N,00221.0480,E,1,4,0.0,-24.7,M,44.7,M,,*7F
$GPGSV,1,1,4,09,82,037,42,27,65,092,42,12,58,233,42,15,38,173,42*41


$GPRMC,000445.000,A,4851.4019,N,00221.0480,E,000.0,003.1,280510,,*03
$GPGGA,000445.000,4851.4019,N,00221.0480,E,1,4,0.0,-24.7,M,44.7,M,,*7F
$GPGSV,1,1,4,09,82,037,42,27,65,092,42,12,58,233,42,15,38,173,42*41


$GPRMC,000445.000,A,4851.4019,N,00221.0480,E,000.0,003.1,280510,,*03
$GPGGA,000445.000,4851.4019,N,00221.0480,E,1,4,0.0,-24.7,M,44.7,M,,*7F
$GPGSV,1,1,4,09,82,037,42,27,65,092,42,12,58,233,42,15,38,173,42*41


$GPRMC,000445.000,A,4851.4019,N,00221.0480,E,000.0,003.1,280510,,*03
$GPGGA,000445.000,4851.4019,N,00221.0480,E,1,4,0.0,-24.7,M,44.7,M,,*7F
$GPGSV,1,1,4,09,82,037,42,27,65,092,42,12,58,233,42,15,38,173,42*41


$GPRMC,000445.000,A,4851.4019,N,00221.0480,E,000.0,003.1,280510,,*03
$GPGGA,000445.000,4851.4019,N,00221.0480,E,1,4,0.0,-24.7,M,44.7,M,,*7F
$GPGSV,1,1,4,09,82,037,42,27,65,092,42,12,58,233,42,15,38,173,42*41


$GPRMC,000445.000,A,4851.4019,N,00221.0480,E,000.0,003.1,280510,,*03
$GPGGA,000445.000,4851.4019,N,00221.0480,E,1,4,0.0,-24.7,M,44.7,M,,*7F
$GPGSV,1,1,4,09,82,037,42,27,65,092,42,12,58,233,42,15,38,173,42*41


$GPRMC,000445.000,A,4851.4019,N,00221.0480,E,000.0,003.1,280510,,*03
$GPGGA,000445.000,4851.4019,N,00221.0480,E,1,4,0.0,-24.7,M,44.7,M,,*7F
$GPGSV,1,1,4,09,82,037,42,27,65,092,42,12,58,233,42,15,38,173,42*41


$GPRMC,000445.000,A,4851.4019,N,00221.0480,E,000.0,003.1,280510,,*03
$GPGGA,000445.000,4851.4019,N,00221.0480,E,1,4,0.0,-24.7,M,44.7,M,,*7F
$GPGSV,1,1,4,09,82,037,42,27,65,092,42,12,58,233,42,15,38,173,42*41


$GPRMC,000445.000,A,4851.4019,N,00221.0480,E,000.0,003.1,280510,,*03
$GPGGA,000445.000,4851.4019,N,00221.0480,E,1,4,0.0,-24.7,M,44.7,M,,*7F
$GPGSV,1,1,4,09,82,037,42,27,65,092,42,12,58,233,42,15,38,173,42*41


$GPRMC,000445.000,A,4851.4019,N,00221.0480,E,000.0,003.1,280510,,*03
$GPGGA,000445.000,4851.4019,N,00221.0480,E,1,4,0.0,-24.7,M,44.7,M,,*7F
$GPGSV,1,1,4,09,82,037,42,27,65,092,42,12,58,233,42,15,38,173,42*41


$GPRMC,000445.000,A,4851.4019,N,00221.0480,E,000.0,003.1,280510,,*03
$GPGGA,000445.000,4851.4019,N,00221.0480,E,1,4,0.0,-24.7,M,44.7,M,,*7F
$GPGSV,1,1,4,09,82,037,42,27,65,092,42,12,58,233,42,15,38,173,42*41


$GPRMC,000445.000,A,4851.4019,N,00221.0480,E,000.0,003.1,280510,,*03
$GPGGA,000445.000,4851.4019,N,00221.0480,E,1,4,0.0,-24.7,M,44.7,M,,*7F
$GPGSV,1,1,4,09,82,037,42,27,65,092,42,12,58,233,42,15,38,173,42*41


$GPRMC,000445.000,A,4851.4019,N,00221.0480,E,000.0,003.1,280510,,*03
$GPGGA,000445.000,4851.4019,N,00221.0480,E,1,4,0.0,-24.7,M,44.7,M,,*7F
$GPGSV,1,1,4,09,82,037,42,27,65,092,42,12,58,233,42,15,38,173,42*41


$GPRMC,000445.000,A,4851.4019,N,00221.0480,E,000.0,003.1,280510,,*03
$GPGGA,000445.000,4851.4019,N,00221.0480,E,1,4,0.0,-24.7,M,44.7,M,,*7F
$GPGSV,1,1,4,09,82,037,42,27,65,092,42,12,58,233,42,15,38,173,42*41


$GPRMC,000445.000,A,4851.4019,N,00221.0480,E,000.0,003.1,280510,,*03
$GPGGA,000445.000,4851.4019,N,00221.0480,E,1,4,0.0,-24.7,M,44.7,M,,*7F
$GPGSV,1,1,4,09,82,037,42,27,65,092,42,12,58,233,42,15,38,173,42*41


